11:03:14  $GNRMC,110314.00,A,3553.26185,N,12836.70370,E,0.174,,060917,,,A*66
11:03:14  $GNVTG,,T,,M,0.174,N,0.322,K,A*3C
$GNGGA,110314.00,3553.26185,N,12836.70370,E,1,05,5.70,60.1,M,22.9,M,,*78
11:03:14  $GNGSA,A,3,15,21,20,,,,,,,,,,8.27,5.70,6.00*10
11:03:14  $GNGSA,A,3,65,66,,,,,,,,,,,8.27,5.70,6.00*16
11:03:14  $GPGSV,3,1,10,02,02,160,,05,39,103,17,13,52,038,08,15,71,327,35*72
11:03:14  $GPGSV,3,2,10,20,78,030,26,21,41,298,35,24,42,190,,28,06,059,*78
11:03:14  $GPGSV,3,3,10,29,05,224,18,30,04,037,*78
11:03:14  $GLGSV,1,1,02,65,54,006,25,66,21,300,25*63
11:03:14  $GNGLL,3553.26185,N,12836.70370,E,110314.00,A,A*74
11:03:14  DEBUG: LOCKDET chn  5, sv G13, reason SWSBSMAG (loop 7)
11:03:15  $GNRMC,110315.00,A,3553.26204,N,12836.70384,E,0.173,,060917,,,A*61
11:03:15  $GNVTG,,T,,M,0.173,N,0.320,K,A*39
$GNGGA,110315.00,3553.26204,N,12836.70384,E,1,05,5.70,59.8,M,22.9,M,,*7B
11:03:15  $GNGSA,A,3,15,21,20,,,,,,,,,,8.27,5.70,6.00*10
11:03:15  $GNGSA,A,3,65,66,,,,,,,,,,,8.27,5.70,6.00*16
11:03:15  $GPGSV,3,1,10,02,02,160,,05,39,103,18,13,52,038,,15,71,327,35*75
11:03:15  $GPGSV,3,2,10,20,78,030,26,21,41,298,35,24,42,190,,28,06,059,*78
11:03:15  $GPGSV,3,3,10,29,05,224,18,30,04,037,*78
11:03:15  $GLGSV,1,1,02,65,54,006,25,66,21,300,25*63
11:03:15  $GNGLL,3553.26204,N,12836.70384,E,110315.00,A,A*74
11:03:16  $GNRMC,110316.00,A,3553.26209,N,12836.70411,E,0.180,,060917,,,A*68
11:03:16  $GNVTG,,T,,M,0.180,N,0.333,K,A*37
$GNGGA,110316.00,3553.26209,N,12836.70411,E,1,05,5.70,59.1,M,22.9,M,,*77
11:03:16  $GNGSA,A,3,15,21,20,,,,,,,,,,8.27,5.70,6.00*10
11:03:16  $GNGSA,A,3,65,66,,,,,,,,,,,8.27,5.70,6.00*16
11:03:16  $GPGSV,3,1,10,02,02,160,,05,39,103,18,13,52,038,,15,71,328,35*7A
11:03:16  $GPGSV,3,2,10,20,78,030,26,21,41,298,35,24,42,190,,28,06,059,*78
11:03:16  $GPGSV,3,3,10,29,05,224,18,30,04,037,*78
11:03:16  $GLGSV,1,1,02,65,54,006,25,66,21,300,24*62
11:03:16  $GNGLL,3553.26209,N,12836.70411,E,110316.00,A,A*71
11:03:17  $GNRMC,110317.00,A,3553.26225,N,12836.70427,E,0.213,,060917,,,A*6B
11:03:17  $GNVTG,,T,,M,0.213,N,0.394,K,A*33
$GNGGA,110317.00,3553.26225,N,12836.70427,E,1,05,5.70,58.8,M,22.9,M,,*75
11:03:17  $GNGSA,A,3,15,21,20,,,,,,,,,,8.27,5.70,6.00*10
11:03:17  $GNGSA,A,3,65,66,,,,,,,,,,,8.27,5.70,6.00*16
11:03:17  $GPGSV,3,1,10,02,02,160,,05,39,103,18,13,52,038,,15,71,328,35*7A
11:03:17  $GPGSV,3,2,10,20,78,030,26,21,41,298,35,24,42,190,,28,06,059,*78
11:03:17  $GPGSV,3,3,10,29,05,224,19,30,04,037,*79
11:03:17  $GLGSV,1,1,02,65,54,006,25,66,21,300,25*63
11:03:17  $GNGLL,3553.26225,N,12836.70427,E,110317.00,A,A*7B
11:03:18  $GNRMC,110318.00,A,3553.26231,N,12836.70442,E,0.091,,060917,,,A*6A
11:03:18  $GNVTG,,T,,M,0.091,N,0.168,K,A*3A
$GNGGA,110318.00,3553.26231,N,12836.70442,E,1,05,5.70,58.4,M,22.9,M,,*70
11:03:18  $GNGSA,A,3,15,21,20,,,,,,,,,,8.27,5.70,6.00*10
11:03:18  $GNGSA,A,3,65,66,,,,,,,,,,,8.27,5.70,6.00*16
11:03:18  $GPGSV,3,1,10,02,02,160,,05,39,103,18,13,52,038,19,15,71,328,35*72
11:03:18  $GPGSV,3,2,10,20,78,030,26,21,41,298,35,24,42,190,,28,06,059,*78
11:03:18  $GPGSV,3,3,10,29,05,224,18,30,04,037,*78
11:03:18  $GLGSV,1,1,02,65,54,006,26,66,21,300,25*60
11:03:18  $GNGLL,3553.26231,N,12836.70442,E,110318.00,A,A*72
11:03:19  $GNRMC,110319.00,A,3553.26201,N,12836.70451,E,0.309,,060917,,,A*68
11:03:19  $GNVTG,,T,,M,0.309,N,0.572,K,A*37
$GNGGA,110319.00,3553.26201,N,12836.70451,E,1,05,5.69,58.1,M,22.9,M,,*7D
11:03:19  $GNGSA,A,3,15,21,20,,,,,,,,,,8.27,5.69,6.00*18
11:03:19  $GNGSA,A,3,65,66,,,,,,,,,,,8.27,5.69,6.00*1E
11:03:19  $GPGSV,3,1,10,02,02,160,,05,39,103,19,13,52,038,18,15,71,328,35*72
11:03:19  $GPGSV,3,2,10,20,78,030,26,21,41,298,35,24,42,190,,28,06,059,*78
11:03:19  $GPGSV,3,3,10,29,05,224,16,30,04,037,*76
11:03:19  $GLGSV,1,1,02,65,54,006,27,66,21,300,25*61
11:03:19  $GNGLL,3553.26201,N,12836.70451,E,110319.00,A,A*72
11:03:20  $GNRMC,110320.00,A,3553.26172,N,12836.70453,E,0.326,,060917,,,A*6A
11:03:20  $GNVTG,,T,,M,0.326,N,0.603,K,A*3F
$GNGGA,110320.00,3553.26172,N,12836.70453,E,1,05,5.69,58.0,M,22.9,M,,*73
11:03:20  $GNGSA,A,3,15,21,20,,,,,,,,,,8.28,5.69,6.00*17
11:03:20  $GNGSA,A,3,65,66,,,,,,,,,,,8.28,5.69,6.00*11
11:03:20  $GPGSV,3,1,10,02,02,160,,05,39,103,19,13,52,038,17,15,71,328,35*7D
11:03:20  $GPGSV,3,2,10,20,78,032,26,21,41,298,35,24,42,190,,28,06,059,*7A
11:03:20  $GPGSV,3,3,10,29,05,224,16,30,04,037,*76
11:03:20  $GLGSV,1,1,02,65,54,006,27,66,21,300,25*61
11:03:20  $GNGLL,3553.26172,N,12836.70453,E,110320.00,A,A*7D
11:03:21  $GNRMC,110321.00,A,3553.26142,N,12836.70447,E,0.320,,060917,,,A*6B
11:03:21  $GNVTG,,T,,M,0.320,N,0.593,K,A*33
$GNGGA,110321.00,3553.26142,N,12836.70447,E,1,05,5.69,58.0,M,22.9,M,,*74
11:03:21  $GNGSA,A,3,15,21,20,,,,,,,,,,8.28,5.69,6.01*16
11:03:21  $GNGSA,A,3,65,66,,,,,,,,,,,8.28,5.69,6.01*10
11:03:21  $GPGSV,3,1,10,02,02,160,,05,39,103,19,13,52,038,18,15,71,328,35*72
11:03:21  $GPGSV,3,2,10,20,78,032,26,21,42,297,35,24,42,190,,28,06,059,*76
11:03:21  $GPGSV,3,3,10,29,05,224,16,30,04,037,*76
11:03:21  $GLGSV,1,1,02,65,54,006,26,66,21,300,25*60
11:03:21  $GNGLL,3553.26142,N,12836.70447,E,110321.00,A,A*7A
11:03:22  $GNRMC,110322.00,A,3553.26119,N,12836.70444,E,0.297,,060917,,,A*68
11:03:22  $GNVTG,,T,,M,0.297,N,0.550,K,A*31
11:03:22  $GNGGA,110322.00,3553.26119,N,12836.70444,E,1,05,5.69,58.0,M,22.9,M,,*7A
11:03:22  $GNGSA,A,3,15,21,20,,,,,,,,,,8.28,5.69,6.01*16
11:03:22  $GNGSA,A,3,65,66,,,,,,,,,,,8.28,5.69,6.01*10
11:03:22  $GPGSV,3,1,10,02,02,160,,05,39,103,19,13,52,038,18,15,71,328,35*72
11:03:22  $GPGSV,3,2,10,20,78,032,26,21,42,297,35,24,42,190,,28,06,059,*76
11:03:22  $GPGSV,3,3,10,29,05,224,16,30,04,037,*76
11:03:22  $GLGSV,1,1,02,65,54,006,26,66,21,300,25*60
11:03:22  $GNGLL,3553.26119,N,12836.70444,E,110322.00,A,A*74
11:03:23  $GNRMC,110323.00,A,3553.26107,N,12836.70439,E,0.082,,060917,,,A*6A
11:03:23  $GNVTG,,T,,M,0.082,N,0.151,K,A*32
11:03:23  $GNGGA,110323.00,3553.26107,N,12836.70439,E,1,05,5.69,58.0,M,22.9,M,,*7E
11:03:23  $GNGSA,A,3,15,21,20,,,,,,,,,,8.28,5.69,6.01*16
11:03:23  $GNGSA,A,3,65,66,,,,,,,,,,,8.28,5.69,6.01*10
11:03:23  $GPGSV,3,1,10,02,02,160,,05,39,103,19,13,52,038,18,15,71,328,35*72
11:03:23  $GPGSV,3,2,10,20,78,032,26,21,42,297,35,24,42,190,,28,06,059,*76
11:03:23  $GPGSV,3,3,10,29,05,224,17,30,04,037,*77
11:03:23  $GLGSV,1,1,03,65,54,006,27,66,21,300,25,72,30,069,*59
11:03:23  $GNGLL,3553.26107,N,12836.70439,E,110323.00,A,A*70
11:03:24  $GNRMC,110324.00,A,3553.26099,N,12836.70436,E,0.015,,060917,,,A*6A
11:03:24  $GNVTG,,T,,M,0.015,N,0.028,K,A*33
11:03:24  $GNGGA,110324.00,3553.26099,N,12836.70436,E,1,05,5.69,58.0,M,22.9,M,,*70
11:03:24  $GNGSA,A,3,15,21,20,,,,,,,,,,8.28,5.69,6.01*16
11:03:24  $GNGSA,A,3,65,66,,,,,,,,,,,8.28,5.69,6.01*10
11:03:24  $GPGSV,3,1,10,02,02,160,,05,39,103,19,13,52,038,18,15,71,328,35*72
11:03:24  $GPGSV,3,2,10,20,78,032,26,21,42,297,35,24,42,190,,28,06,059,*76
11:03:24  $GPGSV,3,3,10,29,05,224,16,30,04,037,*76
11:03:24  $GLGSV,1,1,03,65,54,006,27,66,21,300,25,72,30,069,25*5E
11:03:24  $GNGLL,3553.26099,N,12836.70436,E,110324.00,A,A*7E
11:03:25  $GNRMC,110325.00,A,3553.26060,N,12836.70428,E,0.016,,060917,,,A*61
11:03:25  $GNVTG,,T,,M,0.016,N,0.029,K,A*31
11:03:25  $GNGGA,110325.00,3553.26060,N,12836.70428,E,1,05,5.69,58.0,M,22.9,M,,*78
11:03:25  $GNGSA,A,3,15,21,20,,,,,,,,,,8.28,5.69,6.01*16
11:03:25  $GNGSA,A,3,65,66,,,,,,,,,,,8.28,5.69,6.01*10
11:03:25  $GPGSV,3,1,10,02,02,160,,05,39,103,19,13,52,038,18,15,71,328,35*72
11:03:25  $GPGSV,3,2,10,20,78,032,26,21,42,297,35,24,42,190,,28,06,059,*76
11:03:25  $GPGSV,3,3,10,29,05,224,16,30,04,037,*76
11:03:25  $GLGSV,1,1,03,65,54,006,26,66,21,300,25,72,30,069,24*5E
11:03:25  $GNGLL,3553.26060,N,12836.70428,E,110325.00,A,A*76
11:03:26  $GNRMC,110326.00,A,3553.26019,N,12836.70422,E,0.208,,060917,,,A*6B
11:03:26  $GNVTG,,T,,M,0.208,N,0.384,K,A*38
11:03:26  $GNGGA,110326.00,3553.26019,N,12836.70422,E,1,05,5.69,58.1,M,22.9,M,,*7E
11:03:26  $GNGSA,A,3,15,21,20,,,,,,,,,,8.28,5.69,6.01*16
11:03:26  $GNGSA,A,3,65,66,,,,,,,,,,,8.28,5.69,6.01*10
11:03:26  $GPGSV,3,1,10,02,02,160,,05,39,103,20,13,52,038,18,15,71,328,35*78
11:03:26  $GPGSV,3,2,10,20,78,032,26,21,42,297,35,24,42,190,,28,06,059,*76
11:03:26  $GPGSV,3,3,10,29,05,224,16,30,04,037,*76
11:03:26  $GLGSV,1,1,03,65,54,006,26,66,21,300,26,72,30,069,24*5D
11:03:26  $GNGLL,3553.26019,N,12836.70422,E,110326.00,A,A*71
11:03:27  $GNRMC,110327.00,A,3553.25957,N,12836.70415,E,0.200,,060917,,,A*66
11:03:27  $GNVTG,,T,,M,0.200,N,0.371,K,A*3A
11:03:27  $GNGGA,110327.00,3553.25957,N,12836.70415,E,1,05,5.69,58.0,M,22.9,M,,*7A
11:03:27  $GNGSA,A,3,15,21,20,,,,,,,,,,8.28,5.69,6.01*16
11:03:27  $GNGSA,A,3,65,66,,,,,,,,,,,8.28,5.69,6.01*10
11:03:27  $GPGSV,3,1,10,02,02,160,,05,39,103,19,13,52,038,17,15,71,328,35*7D
11:03:27  $GPGSV,3,2,10,20,78,032,26,21,42,297,35,24,42,190,,28,06,059,*76
11:03:27  $GPGSV,3,3,10,29,05,224,15,30,04,037,*75
11:03:27  $GLGSV,1,1,03,65,54,006,27,66,21,300,25,72,30,069,23*58
11:03:27  $GNGLL,3553.25957,N,12836.70415,E,110327.00,A,A*74
11:03:28  $GNRMC,110328.00,A,3553.25913,N,12836.70408,E,0.150,,060917,,,A*63
11:03:28  $GNVTG,,T,,M,0.150,N,0.278,K,A*34
11:03:28  $GNGGA,110328.00,3553.25913,N,12836.70408,E,1,05,5.69,57.9,M,22.9,M,,*7F
11:03:28  $GNGSA,A,3,15,21,20,,,,,,,,,,8.28,5.69,6.01*16
11:03:28  $GNGSA,A,3,65,66,,,,,,,,,,,8.28,5.69,6.01*10
11:03:28  $GPGSV,3,1,10,02,02,160,,05,39,103,19,13,52,038,17,15,71,328,35*7D
11:03:28  $GPGSV,3,2,10,20,78,032,25,21,42,297,35,24,42,190,,28,06,059,*75
11:03:28  $GPGSV,3,3,10,29,05,224,15,30,04,037,*75
11:03:28  $GLGSV,1,1,03,65,54,006,26,66,21,300,25,72,30,069,23*59
11:03:28  $GNGLL,3553.25913,N,12836.70408,E,110328.00,A,A*77
11:03:29  $GNRMC,110329.00,A,3553.25870,N,12836.70399,E,0.237,,060917,,,A*6B
11:03:29  $GNVTG,,T,,M,0.237,N,0.439,K,A*35
11:03:29  $GNGGA,110329.00,3553.25870,N,12836.70399,E,1,05,5.69,58.0,M,22.9,M,,*73
11:03:29  $GNGSA,A,3,15,21,20,,,,,,,,,,8.28,5.69,6.01*16
11:03:29  $GNGSA,A,3,65,66,,,,,,,,,,,8.28,5.69,6.01*10
11:03:29  $GPGSV,3,1,10,02,02,160,,05,39,103,19,13,52,038,16,15,71,328,35*7C
11:03:29  $GPGSV,3,2,10,20,78,032,25,21,42,297,35,24,42,190,,28,06,059,*75
11:03:29  $GPGSV,3,3,10,29,05,224,14,30,04,037,*74
11:03:29  $GLGSV,1,1,03,65,54,006,26,66,21,300,25,72,30,069,23*59
11:03:29  $GNGLL,3553.25870,N,12836.70399,E,110329.00,A,A*7D
11:03:30  $GNRMC,110330.00,A,3553.25835,N,12836.70403,E,0.414,,060917,,,A*61
11:03:30  $GNVTG,,T,,M,0.414,N,0.767,K,A*3A
11:03:30  $GNGGA,110330.00,3553.25835,N,12836.70403,E,1,05,5.69,57.6,M,22.9,M,,*77
11:03:30  $GNGSA,A,3,15,21,20,,,,,,,,,,8.28,5.69,6.01*16
11:03:30  $GNGSA,A,3,65,66,,,,,,,,,,,8.28,5.69,6.01*10
11:03:30  $GPGSV,3,1,10,02,02,160,,05,39,103,18,13,52,038,16,15,71,328,35*7D
11:03:30  $GPGSV,3,2,10,20,78,032,26,21,42,297,35,24,42,190,,28,06,059,*76
11:03:30  $GPGSV,3,3,10,29,05,224,14,30,03,037,*73
11:03:30  $GLGSV,1,1,03,65,54,006,25,66,21,300,25,72,30,069,24*5D
11:03:30  $GNGLL,3553.25835,N,12836.70403,E,110330.00,A,A*70
11:03:31  $GNRMC,110331.00,A,3553.25814,N,12836.70409,E,0.373,,060917,,,A*6F
11:03:31  $GNVTG,,T,,M,0.373,N,0.691,K,A*34
11:03:31  $GNGGA,110331.00,3553.25814,N,12836.70409,E,1,05,5.69,57.4,M,22.9,M,,*7D
11:03:31  $GNGSA,A,3,15,21,20,,,,,,,,,,8.28,5.69,6.01*16
11:03:31  $GNGSA,A,3,65,66,,,,,,,,,,,8.28,5.69,6.01*10
11:03:31  $GPGSV,3,1,10,02,02,160,,05,39,103,17,13,52,038,17,15,71,328,34*72
11:03:31  $GPGSV,3,2,10,20,78,032,26,21,42,297,36,24,42,190,,28,06,059,*75
11:03:31  $GPGSV,3,3,10,29,05,224,14,30,03,037,*73
11:03:31  $GLGSV,1,1,04,65,54,006,25,66,21,300,25,72,30,069,23,74,33,047,*6D
11:03:31  $GNGLL,3553.25814,N,12836.70409,E,110331.00,A,A*78
11:03:32  $GNRMC,110332.00,A,3553.25806,N,12836.70413,E,0.260,,060917,,,A*67
11:03:32  $GNVTG,,T,,M,0.260,N,0.481,K,A*34
11:03:32  $GNGGA,110332.00,3553.25806,N,12836.70413,E,1,05,5.69,57.2,M,22.9,M,,*70
11:03:32  $GNGSA,A,3,15,21,20,,,,,,,,,,8.28,5.69,6.01*16
11:03:32  $GNGSA,A,3,65,66,,,,,,,,,,,8.28,5.69,6.01*10
11:03:32  $GPGSV,3,1,10,02,02,160,,05,39,103,15,13,52,038,18,15,71,328,34*7F
11:03:32  $GPGSV,3,2,10,20,78,032,26,21,42,297,35,24,42,190,,28,06,059,*76
11:03:32  $GPGSV,3,3,10,29,05,224,14,30,03,037,*73
11:03:32  $GLGSV,1,1,04,65,54,006,25,66,21,300,25,72,30,069,23,74,33,047,*6D
11:03:32  $GNGLL,3553.25806,N,12836.70413,E,110332.00,A,A*73
11:03:33  $GNRMC,110333.00,A,3553.25806,N,12836.70412,E,0.138,,060917,,,A*69
11:03:33  $GNVTG,,T,,M,0.138,N,0.255,K,A*35
11:03:33  $GNGGA,110333.00,3553.25806,N,12836.70412,E,1,05,5.69,57.2,M,22.9,M,,*70
11:03:33  $GNGSA,A,3,15,21,20,,,,,,,,,,8.28,5.69,6.01*16
11:03:33  $GNGSA,A,3,65,66,,,,,,,,,,,8.28,5.69,6.01*10
11:03:33  $GPGSV,3,1,10,02,02,160,,05,39,103,14,13,52,038,18,15,71,328,34*7E
11:03:33  $GPGSV,3,2,10,20,78,032,26,21,42,297,35,24,42,190,,28,06,059,*76
11:03:33  $GPGSV,3,3,10,29,05,224,16,30,03,037,*71
11:03:33  $GLGSV,1,1,04,65,54,006,25,66,21,300,25,72,30,069,23,74,33,047,19*65
11:03:33  $GNGLL,3553.25806,N,12836.70412,E,110333.00,A,A*73
11:03:34  $GNRMC,110334.00,A,3553.25808,N,12836.70407,E,0.056,,060917,,,A*6D
11:03:34  $GNVTG,,T,,M,0.056,N,0.105,K,A*3A
11:03:34  $GNGGA,110334.00,3553.25808,N,12836.70407,E,1,05,5.69,57.4,M,22.9,M,,*7B
11:03:34  $GNGSA,A,3,15,21,20,,,,,,,,,,8.28,5.69,6.01*16
11:03:34  $GNGSA,A,3,65,66,,,,,,,,,,,8.28,5.69,6.01*10
11:03:34  $GPGSV,3,1,10,02,02,160,,05,39,103,16,13,52,038,17,15,71,328,34*73
11:03:34  $GPGSV,3,2,10,20,78,032,26,21,42,297,35,24,42,190,,28,06,059,*76
11:03:34  $GPGSV,3,3,10,29,05,224,15,30,03,037,*72
11:03:34  $GLGSV,1,1,04,65,54,006,25,66,21,300,25,72,30,069,23,74,33,047,19*65
11:03:34  $GNGLL,3553.25808,N,12836.70407,E,110334.00,A,A*7E
11:03:35  $GNRMC,110335.00,A,3553.25810,N,12836.70401,E,0.073,,060917,,,A*64
11:03:35  $GNVTG,,T,,M,0.073,N,0.135,K,A*3E
11:03:35  $GNGGA,110335.00,3553.25810,N,12836.70401,E,1,05,5.69,57.5,M,22.9,M,,*74
11:03:35  $GNGSA,A,3,15,21,20,,,,,,,,,,8.28,5.69,6.01*16
11:03:35  $GNGSA,A,3,65,66,,,,,,,,,,,8.28,5.69,6.01*10
11:03:35  $GPGSV,3,1,10,02,02,160,,05,39,103,16,13,52,038,17,15,71,328,33*74
11:03:35  $GPGSV,3,2,10,20,78,032,25,21,42,297,35,24,42,190,,28,06,059,*75
11:03:35  $GPGSV,3,3,10,29,05,224,16,30,03,037,*71
11:03:35  $GLGSV,1,1,04,65,54,007,25,66,21,300,25,72,30,069,23,74,33,047,18*65
11:03:35  $GNGLL,3553.25810,N,12836.70401,E,110335.00,A,A*70
11:03:36  $GNRMC,110336.00,A,3553.25817,N,12836.70392,E,0.167,,060917,,,A*69
11:03:36  $GNVTG,,T,,M,0.167,N,0.309,K,A*37
11:03:36  $GNGGA,110336.00,3553.25817,N,12836.70392,E,1,05,5.69,57.8,M,22.9,M,,*70
11:03:36  $GNGSA,A,3,15,21,20,,,,,,,,,,8.28,5.69,6.02*15
11:03:36  $GNGSA,A,3,65,66,,,,,,,,,,,8.28,5.69,6.02*13
11:03:36  $GPGSV,3,1,10,02,02,160,,05,39,103,15,13,52,038,17,15,71,328,33*77
11:03:36  $GPGSV,3,2,10,20,78,032,25,21,42,297,35,24,42,190,,28,06,059,*75
11:03:36  $GPGSV,3,3,10,29,05,224,14,30,03,037,*73
11:03:36  $GLGSV,1,1,04,65,54,007,25,66,21,300,25,72,30,069,22,74,33,047,18*64
11:03:36  $GNGLL,3553.25817,N,12836.70392,E,110336.00,A,A*79
11:03:37  $GNRMC,110337.00,A,3553.25816,N,12836.70387,E,0.102,,060917,,,A*6E
11:03:37  $GNVTG,,T,,M,0.102,N,0.189,K,A*3E
11:03:37  $GNGGA,110337.00,3553.25816,N,12836.70387,E,1,05,5.69,57.7,M,22.9,M,,*7B
11:03:37  $GNGSA,A,3,15,21,20,,,,,,,,,,8.28,5.69,6.02*15
11:03:37  $GNGSA,A,3,65,66,,,,,,,,,,,8.28,5.69,6.02*13
11:03:37  $GPGSV,3,1,10,02,02,160,,05,39,103,14,13,52,038,17,15,71,328,33*76
11:03:37  $GPGSV,3,2,10,20,78,032,26,21,42,297,35,24,42,190,,28,06,059,*76
11:03:37  $GPGSV,3,3,10,29,05,224,14,30,03,037,*73
11:03:37  $GLGSV,1,1,04,65,54,007,25,66,21,300,24,72,30,069,22,74,33,047,17*6A
11:03:37  $GNGLL,3553.25816,N,12836.70387,E,110337.00,A,A*7D
11:03:38  $GNRMC,110338.00,A,3553.25798,N,12836.70384,E,0.170,,060917,,,A*6E
11:03:38  $GNVTG,,T,,M,0.170,N,0.314,K,A*3D
11:03:38  $GNGGA,110338.00,3553.25798,N,12836.70384,E,1,05,5.69,57.6,M,22.9,M,,*7F
11:03:38  $GNGSA,A,3,15,21,20,,,,,,,,,,8.28,5.69,6.02*15
11:03:38  $GNGSA,A,3,65,66,,,,,,,,,,,8.28,5.69,6.02*13
11:03:38  $GPGSV,3,1,10,02,02,160,,05,39,103,16,13,52,038,17,15,71,328,33*74
11:03:38  $GPGSV,3,2,10,20,78,032,25,21,42,297,35,24,42,190,,28,06,059,*75
11:03:38  $GPGSV,3,3,10,29,05,224,13,30,03,037,*74
11:03:38  $GLGSV,1,1,04,65,54,007,25,66,21,300,24,72,30,069,22,74,33,047,18*65
11:03:38  $GNGLL,3553.25798,N,12836.70384,E,110338.00,A,A*78
11:03:39  $GNRMC,110339.00,A,3553.25772,N,12836.70376,E,0.382,,060917,,,A*69
11:03:39  $GNVTG,,T,,M,0.382,N,0.708,K,A*3B
11:03:39  $GNGGA,110339.00,3553.25772,N,12836.70376,E,1,05,5.69,57.5,M,22.9,M,,*74
11:03:39  $GNGSA,A,3,15,21,20,,,,,,,,,,8.28,5.69,6.02*15
11:03:39  $GNGSA,A,3,65,66,,,,,,,,,,,8.28,5.69,6.02*13
11:03:39  $GPGSV,3,1,10,02,02,160,,05,39,103,16,13,52,038,17,15,71,328,33*74
11:03:39  $GPGSV,3,2,10,20,78,032,25,21,42,297,35,24,42,190,,28,06,059,*75
11:03:39  $GPGSV,3,3,10,29,05,224,13,30,03,037,*74
11:03:39  $GLGSV,1,1,04,65,54,007,24,66,21,300,23,72,30,069,21,74,33,047,18*60
11:03:39  $GNGLL,3553.25772,N,12836.70376,E,110339.00,A,A*70
11:03:40  $GNRMC,110340.00,A,3553.25742,N,12836.70370,E,0.460,,060917,,,A*69
11:03:40  $GNVTG,,T,,M,0.460,N,0.853,K,A*31
11:03:40  $GNGGA,110340.00,3553.25742,N,12836.70370,E,1,05,5.69,57.5,M,22.9,M,,*7F
11:03:40  $GNGSA,A,3,15,21,20,,,,,,,,,,8.28,5.69,6.02*15
11:03:40  $GNGSA,A,3,65,66,,,,,,,,,,,8.28,5.69,6.02*13
11:03:40  $GPGSV,3,1,10,02,02,160,,05,39,103,16,13,52,038,16,15,71,328,33*75
11:03:40  $GPGSV,3,2,10,20,78,032,25,21,42,297,35,24,42,190,,28,06,059,*75
11:03:40  $GPGSV,3,3,10,29,05,224,13,30,03,037,*74
11:03:40  $GLGSV,1,1,04,65,54,007,25,66,21,300,23,72,30,069,21,74,33,047,18*61
11:03:40  $GNGLL,3553.25742,N,12836.70370,E,110340.00,A,A*7B
11:03:41  $GNRMC,110341.00,A,3553.25689,N,12836.70361,E,0.580,,060917,,,A*61
11:03:41  $GNVTG,,T,,M,0.580,N,1.075,K,A*33
11:03:41  $GNGGA,110341.00,3553.25689,N,12836.70361,E,1,05,5.69,57.5,M,22.9,M,,*78
11:03:41  $GNGSA,A,3,15,21,20,,,,,,,,,,8.28,5.69,6.02*15
11:03:41  $GNGSA,A,3,65,66,,,,,,,,,,,8.28,5.69,6.02*13
11:03:41  $GPGSV,3,1,10,02,02,160,,05,39,103,16,13,52,038,16,15,71,328,32*74
11:03:41  $GPGSV,3,2,10,20,78,032,25,21,42,297,34,24,42,190,,28,06,059,*74
11:03:41  $GPGSV,3,3,10,29,05,224,13,30,03,037,*74
11:03:41  $GLGSV,1,1,04,65,54,007,24,66,21,300,23,72,30,069,21,74,33,047,18*60
11:03:41  $GNGLL,3553.25689,N,12836.70361,E,110341.00,A,A*7C
11:03:42  $GNRMC,110342.00,A,3553.25657,N,12836.70363,E,0.593,,060917,,,A*61
11:03:42  $GNVTG,,T,,M,0.593,N,1.098,K,A*32
11:03:42  $GNGGA,110342.00,3553.25657,N,12836.70363,E,1,05,5.68,57.3,M,22.9,M,,*7D
11:03:42  $GNGSA,A,3,15,21,20,,,,,,,,,,8.28,5.68,6.02*14
11:03:42  $GNGSA,A,3,65,66,,,,,,,,,,,8.28,5.68,6.02*12
11:03:42  $GPGSV,3,1,10,02,02,160,,05,39,103,16,13,52,038,15,15,71,328,31*74
11:03:42  $GPGSV,3,2,10,20,78,032,23,21,42,297,32,24,42,190,,28,06,059,*74
11:03:42  $GPGSV,3,3,10,29,05,224,12,30,03,037,*75
11:03:42  $GLGSV,1,1,04,65,54,007,24,66,21,300,23,72,30,070,21,74,33,047,18*68
11:03:42  $GNGLL,3553.25657,N,12836.70363,E,110342.00,A,A*7E
11:03:42  DEBUG: LOCKDET chn  8, sv G29, reason DFTMAG (loop 5)
11:03:43  $GNRMC,110343.00,A,3553.25626,N,12836.70359,E,0.655,,060917,,,A*66
11:03:43  $GNVTG,,T,,M,0.655,N,1.214,K,A*3D
11:03:43  $GNGGA,110343.00,3553.25626,N,12836.70359,E,1,05,5.68,57.2,M,22.9,M,,*72
11:03:43  $GNGSA,A,3,15,21,20,,,,,,,,,,8.28,5.68,6.02*14
11:03:43  $GNGSA,A,3,65,66,,,,,,,,,,,8.28,5.68,6.02*12
11:03:43  $GPGSV,3,1,11,02,02,160,,05,39,103,15,13,52,038,12,15,71,328,35*75
11:03:43  $GPGSV,3,2,11,18,22,305,,20,78,032,23,21,42,297,33,24,42,190,*7B
11:03:43  $GPGSV,3,3,11,28,06,059,,29,05,224,,30,03,037,*47
11:03:43  $GLGSV,1,1,04,65,54,007,23,66,21,300,21,72,30,070,22,74,33,047,17*61
11:03:43  $GNGLL,3553.25626,N,12836.70359,E,110343.00,A,A*70
11:03:43  DEBUG: LOCKDET chn  5, sv G13, reason DFTMAG (loop 5)
11:03:44  $GNRMC,110344.00,A,3553.25605,N,12836.70354,E,0.432,,060917,,,A*6E
11:03:44  $GNVTG,,T,,M,0.432,N,0.799,K,A*3F
11:03:44  $GNGGA,110344.00,3553.25605,N,12836.70354,E,1,05,5.68,57.2,M,22.9,M,,*79
11:03:44  $GNGSA,A,3,15,21,20,,,,,,,,,,8.28,5.68,6.02*14
11:03:44  $GNGSA,A,3,65,66,,,,,,,,,,,8.28,5.68,6.02*12
11:03:44  $GPGSV,3,1,11,02,02,160,,05,39,103,15,13,52,038,,15,71,328,34*77
11:03:44  $GPGSV,3,2,11,18,22,305,,20,78,032,23,21,42,297,35,24,42,190,*7D
11:03:44  $GPGSV,3,3,11,28,06,059,,29,05,224,,30,03,037,*47
11:03:44  $GLGSV,1,1,04,65,54,007,25,66,21,300,23,72,30,070,23,74,33,047,18*6B
11:03:44  $GNGLL,3553.25605,N,12836.70354,E,110344.00,A,A*7B
11:03:45  $GNRMC,110345.00,A,3553.25578,N,12836.70348,E,0.373,,060917,,,A*69
11:03:45  $GNVTG,,T,,M,0.373,N,0.691,K,A*34
11:03:45  $GNGGA,110345.00,3553.25578,N,12836.70348,E,1,05,5.68,57.1,M,22.9,M,,*7F
11:03:45  $GNGSA,A,3,15,21,20,,,,,,,,,,8.28,5.68,6.02*14
11:03:45  $GNGSA,A,3,65,66,,,,,,,,,,,8.28,5.68,6.02*12
11:03:45  $GPGSV,3,1,11,02,02,160,,05,39,103,18,13,52,038,,15,71,328,35*7B
11:03:45  $GPGSV,3,2,11,18,22,305,,20,78,032,24,21,42,297,36,24,42,190,*79
11:03:45  $GPGSV,3,3,11,28,06,059,,29,05,224,,30,03,037,*47
11:03:45  $GLGSV,1,1,04,65,54,007,26,66,21,300,24,72,30,070,23,74,33,047,20*64
11:03:45  $GNGLL,3553.25578,N,12836.70348,E,110345.00,A,A*7E
11:03:46  $GNRMC,110346.00,A,3553.25554,N,12836.70351,E,0.208,,060917,,,A*61
11:03:46  $GNVTG,,T,,M,0.208,N,0.385,K,A*39
11:03:46  $GNGGA,110346.00,3553.25554,N,12836.70351,E,1,05,5.68,56.7,M,22.9,M,,*7D
11:03:46  $GNGSA,A,3,15,21,20,,,,,,,,,,8.28,5.68,6.02*14
11:03:46  $GNGSA,A,3,65,66,,,,,,,,,,,8.28,5.68,6.02*12
11:03:46  $GPGSV,3,1,11,02,02,160,,05,39,103,20,13,52,038,,15,71,328,35*70
11:03:46  $GPGSV,3,2,11,18,22,305,,20,78,032,24,21,42,297,36,24,42,190,*79
11:03:46  $GPGSV,3,3,11,28,06,059,,29,05,224,,30,03,037,*47
11:03:46  $GLGSV,1,1,04,65,54,007,26,66,21,300,24,72,30,070,22,74,33,047,19*6F
11:03:46  $GNGLL,3553.25554,N,12836.70351,E,110346.00,A,A*7B
11:03:47  $GNRMC,110347.00,A,3553.25538,N,12836.70336,E,0.146,,060917,,,A*62
11:03:47  $GNVTG,,T,,M,0.146,N,0.270,K,A*3B
11:03:47  $GNGGA,110347.00,3553.25538,N,12836.70336,E,1,05,5.68,56.9,M,22.9,M,,*79
11:03:47  $GNGSA,A,3,15,21,20,,,,,,,,,,8.28,5.68,6.02*14
11:03:47  $GNGSA,A,3,65,66,,,,,,,,,,,8.28,5.68,6.02*12
11:03:47  $GPGSV,3,1,11,02,01,159,,05,39,103,20,13,52,038,,15,71,328,35*79
11:03:47  $GPGSV,3,2,11,18,22,305,,20,78,032,24,21,42,297,35,24,42,190,*7A
11:03:47  $GPGSV,3,3,11,28,06,059,,29,05,224,,30,03,037,*47
11:03:47  $GLGSV,1,1,04,65,54,007,26,66,21,300,23,72,30,070,20,74,33,047,19*6A
11:03:47  $GNGLL,3553.25538,N,12836.70336,E,110347.00,A,A*71
11:03:48  $GNRMC,110348.00,A,3553.25523,N,12836.70318,E,0.171,,060917,,,A*6F
11:03:48  $GNVTG,,T,,M,0.171,N,0.316,K,A*3E
11:03:48  $GNGGA,110348.00,3553.25523,N,12836.70318,E,1,05,5.68,57.2,M,22.9,M,,*7A
11:03:48  $GNGSA,A,3,15,21,20,,,,,,,,,,8.28,5.68,6.02*14
11:03:48  $GNGSA,A,3,65,66,,,,,,,,,,,8.28,5.68,6.02*12
11:03:48  $GPGSV,3,1,11,02,01,159,,05,39,103,20,13,52,038,,15,71,328,35*79
11:03:48  $GPGSV,3,2,11,18,22,305,19,20,78,032,24,21,42,297,35,24,42,190,*72
11:03:48  $GPGSV,3,3,11,28,06,059,,29,05,224,,30,03,037,*47
11:03:48  $GLGSV,1,1,04,65,54,007,26,66,21,300,24,72,30,070,20,74,33,047,18*6C
11:03:48  $GNGLL,3553.25523,N,12836.70318,E,110348.00,A,A*78
11:03:49  $GNRMC,110349.00,A,3553.25514,N,12836.70304,E,0.460,,060917,,,A*62
11:03:49  $GNVTG,,T,,M,0.460,N,0.853,K,A*31
11:03:49  $GNGGA,110349.00,3553.25514,N,12836.70304,E,1,05,5.68,57.2,M,22.9,M,,*72
11:03:49  $GNGSA,A,3,15,21,20,,,,,,,,,,8.28,5.68,6.02*14
11:03:49  $GNGSA,A,3,65,66,,,,,,,,,,,8.28,5.68,6.02*12
11:03:49  $GPGSV,3,1,11,02,01,159,,05,39,103,20,13,52,038,,15,71,328,34*78
11:03:49  $GPGSV,3,2,11,18,22,305,19,20,78,032,25,21,42,297,35,24,42,190,*73
11:03:49  $GPGSV,3,3,11,28,06,059,,29,05,224,,30,03,037,*47
11:03:49  $GLGSV,1,1,04,65,54,007,26,66,21,300,24,72,30,070,20,74,33,047,18*6C
11:03:49  $GNGLL,3553.25514,N,12836.70304,E,110349.00,A,A*70
11:03:50  $GNRMC,110350.00,A,3553.25508,N,12836.70287,E,0.543,,060917,,,A*6D
11:03:50  $GNVTG,,T,,M,0.543,N,1.005,K,A*3B
11:03:50  $GNGGA,110350.00,3553.25508,N,12836.70287,E,1,05,5.68,57.4,M,22.9,M,,*7B
11:03:50  $GNGSA,A,3,15,21,20,,,,,,,,,,8.28,5.68,6.03*15
11:03:50  $GNGSA,A,3,65,66,,,,,,,,,,,8.28,5.68,6.03*13
11:03:50  $GPGSV,3,1,11,02,01,159,,05,39,103,21,13,52,038,,15,71,328,35*78
11:03:50  $GPGSV,3,2,11,18,22,305,19,20,78,032,25,21,42,297,35,24,42,190,*73
11:03:50  $GPGSV,3,3,11,28,06,059,,29,05,224,,30,03,037,*47
11:03:50  $GLGSV,1,1,04,65,54,007,25,66,21,300,25,72,30,070,21,74,33,047,18*6F
11:03:50  $GNGLL,3553.25508,N,12836.70287,E,110350.00,A,A*7F
11:03:51  $GNRMC,110351.00,A,3553.25495,N,12836.70276,E,0.459,,060917,,,A*6D
11:03:51  $GNVTG,,T,,M,0.459,N,0.851,K,A*39
11:03:51  $GNGGA,110351.00,3553.25495,N,12836.70276,E,1,05,5.68,57.6,M,22.9,M,,*73
11:03:51  $GNGSA,A,3,15,21,20,,,,,,,,,,8.28,5.68,6.03*15
11:03:51  $GNGSA,A,3,65,66,,,,,,,,,,,8.28,5.68,6.03*13
11:03:51  $GPGSV,3,1,11,02,01,159,,05,39,103,21,13,52,038,,15,71,328,34*79
11:03:51  $GPGSV,3,2,11,18,22,305,19,20,78,032,24,21,42,297,35,24,42,190,*72
11:03:51  $GPGSV,3,3,11,28,06,059,,29,05,224,,30,03,037,*47
11:03:51  $GLGSV,1,1,04,65,54,007,25,66,21,300,24,72,30,070,21,74,33,047,18*6E
11:03:51  $GNGLL,3553.25495,N,12836.70276,E,110351.00,A,A*75
11:03:52  $GNRMC,110352.00,A,3553.25506,N,12836.70241,E,0.357,,060917,,,A*68
11:03:52  $GNVTG,,T,,M,0.357,N,0.661,K,A*3D
11:03:52  $GNGGA,110352.00,3553.25506,N,12836.70241,E,1,05,5.68,58.4,M,22.9,M,,*72
11:03:52  $GNGSA,A,3,15,21,20,,,,,,,,,,8.28,5.68,6.03*15
11:03:52  $GNGSA,A,3,65,66,,,,,,,,,,,8.28,5.68,6.03*13
11:03:52  $GPGSV,3,1,11,02,01,159,,05,39,103,21,13,52,038,,15,71,328,33*7E
11:03:52  $GPGSV,3,2,11,18,22,305,18,20,78,032,24,21,42,297,36,24,42,190,*70
11:03:52  $GPGSV,3,3,11,28,06,059,,29,05,224,,30,03,037,*47
11:03:52  $GLGSV,1,1,04,65,54,007,25,66,21,300,24,72,30,070,21,74,33,047,18*6E
11:03:52  $GNGLL,3553.25506,N,12836.70241,E,110352.00,A,A*79
11:03:53  $GNRMC,110353.00,A,3553.25498,N,12836.70225,E,0.297,,060917,,,A*60
11:03:53  $GNVTG,,T,,M,0.297,N,0.551,K,A*30
11:03:53  $GNGGA,110353.00,3553.25498,N,12836.70225,E,1,05,5.68,58.6,M,22.9,M,,*75
11:03:53  $GNGSA,A,3,15,21,20,,,,,,,,,,8.28,5.68,6.03*15
11:03:53  $GNGSA,A,3,65,66,,,,,,,,,,,8.28,5.68,6.03*13
11:03:53  $GPGSV,3,1,11,02,01,159,,05,39,103,21,13,52,038,,15,71,328,34*79
11:03:53  $GPGSV,3,2,11,18,22,305,17,20,78,032,24,21,42,297,36,24,42,190,*7F
11:03:53  $GPGSV,3,3,11,28,06,059,,29,05,224,,30,03,037,*47
11:03:53  $GLGSV,1,1,04,65,54,007,25,66,21,300,24,72,30,070,20,74,33,047,17*60
11:03:53  $GNGLL,3553.25498,N,12836.70225,E,110353.00,A,A*7C
11:03:54  $GNRMC,110354.00,A,3553.25489,N,12836.70216,E,0.257,,060917,,,A*6B
11:03:54  $GNVTG,,T,,M,0.257,N,0.475,K,A*3B
11:03:54  $GNGGA,110354.00,3553.25489,N,12836.70216,E,1,05,5.68,58.7,M,22.9,M,,*73
11:03:54  $GNGSA,A,3,15,21,20,,,,,,,,,,8.28,5.68,6.03*15
11:03:54  $GNGSA,A,3,65,66,,,,,,,,,,,8.28,5.68,6.03*13
11:03:54  $GPGSV,3,1,11,02,01,159,,05,39,103,21,13,52,038,,15,71,328,34*79
11:03:54  $GPGSV,3,2,11,18,22,305,17,20,78,032,24,21,42,297,36,24,42,190,*7F
11:03:54  $GPGSV,3,3,11,28,06,059,,29,05,224,,30,03,037,*47
11:03:54  $GLGSV,1,1,04,65,54,007,24,66,21,300,23,72,30,070,20,74,33,047,16*67
11:03:54  $GNGLL,3553.25489,N,12836.70216,E,110354.00,A,A*7B
11:03:55  $GNRMC,110355.00,A,3553.25495,N,12836.70195,E,0.175,,060917,,,A*6C
11:03:55  $GNVTG,,T,,M,0.175,N,0.325,K,A*3A
11:03:55  $GNGGA,110355.00,3553.25495,N,12836.70195,E,1,05,5.68,59.1,M,22.9,M,,*70
11:03:55  $GNGSA,A,3,15,21,20,,,,,,,,,,8.28,5.68,6.03*15
11:03:55  $GNGSA,A,3,65,66,,,,,,,,,,,8.28,5.68,6.03*13
11:03:55  $GPGSV,3,1,11,02,01,159,,05,39,103,22,13,52,038,,15,71,328,35*7B
11:03:55  $GPGSV,3,2,11,18,22,305,17,20,78,032,24,21,42,297,35,24,42,190,*7C
11:03:55  $GPGSV,3,3,11,28,06,059,,29,05,224,,30,03,037,*47
11:03:55  $GLGSV,1,1,04,65,54,007,24,66,21,300,23,72,30,070,20,74,33,047,16*67
11:03:55  $GNGLL,3553.25495,N,12836.70195,E,110355.00,A,A*7F
11:03:56  $GNRMC,110356.00,A,3553.25483,N,12836.70191,E,0.133,,060917,,,A*6E
11:03:56  $GNVTG,,T,,M,0.133,N,0.246,K,A*3C
11:03:56  $GNGGA,110356.00,3553.25483,N,12836.70191,E,1,05,5.68,58.9,M,22.9,M,,*79
11:03:56  $GNGSA,A,3,15,21,20,,,,,,,,,,8.28,5.68,6.03*15
11:03:56  $GNGSA,A,3,65,66,,,,,,,,,,,8.28,5.68,6.03*13
11:03:56  $GPGSV,3,1,11,02,01,159,,05,39,103,22,13,52,038,,15,71,328,34*7A
11:03:56  $GPGSV,3,2,11,18,22,305,18,20,78,032,25,21,42,297,35,24,42,190,*72
11:03:56  $GPGSV,3,3,11,28,06,059,,29,05,224,,30,03,037,*47
11:03:56  $GLGSV,1,1,04,65,54,007,25,66,21,300,23,72,30,070,19,74,33,047,15*6F
11:03:56  $GNGLL,3553.25483,N,12836.70191,E,110356.00,A,A*7F
11:03:57  $GNRMC,110357.00,A,3553.25524,N,12836.70202,E,0.552,,060917,,,A*69
11:03:57  $GNVTG,,T,,M,0.552,N,1.022,K,A*3E
11:03:57  $GNGGA,110357.00,3553.25524,N,12836.70202,E,1,05,5.68,58.3,M,22.9,M,,*77
11:03:57  $GNGSA,A,3,15,21,20,,,,,,,,,,8.28,5.68,6.03*15
11:03:57  $GNGSA,A,3,65,66,,,,,,,,,,,8.28,5.68,6.03*13
11:03:57  $GPGSV,3,1,11,02,01,159,,05,39,103,22,13,52,038,,15,71,328,34*7A
11:03:57  $GPGSV,3,2,11,18,22,305,16,20,78,032,25,21,42,297,35,24,42,190,*7C
11:03:57  $GPGSV,3,3,11,28,06,059,,29,05,224,,30,03,037,*47
11:03:57  $GLGSV,1,1,04,65,54,007,24,66,21,300,23,72,30,070,18,74,33,047,15*6F
11:03:57  $GNGLL,3553.25524,N,12836.70202,E,110357.00,A,A*7B
11:03:58  $GNRMC,110358.00,A,3553.25521,N,12836.70206,E,0.468,,060917,,,A*6F
11:03:58  $GNVTG,,T,,M,0.468,N,0.867,K,A*3E
11:03:58  $GNGGA,110358.00,3553.25521,N,12836.70206,E,1,05,5.68,57.8,M,22.9,M,,*7D
11:03:58  $GNGSA,A,3,15,21,20,,,,,,,,,,8.28,5.68,6.03*15
11:03:58  $GNGSA,A,3,65,66,,,,,,,,,,,8.28,5.68,6.03*13
11:03:58  $GPGSV,3,1,11,02,01,159,,05,39,103,22,13,52,038,,15,71,329,33*7C
11:03:58  $GPGSV,3,2,11,18,22,305,16,20,78,032,25,21,42,297,35,24,42,190,*7C
11:03:58  $GPGSV,3,3,11,28,06,059,,29,05,224,,30,03,037,*47
11:03:58  $GLGSV,1,1,04,65,54,007,24,66,21,300,23,72,30,070,17,74,33,047,16*63
11:03:58  $GNGLL,3553.25521,N,12836.70206,E,110358.00,A,A*75
11:03:59  $GNRMC,110359.00,A,3553.25536,N,12836.70193,E,0.268,,060917,,,A*61
11:03:59  $GNVTG,,T,,M,0.268,N,0.497,K,A*3B
11:03:59  $GNGGA,110359.00,3553.25536,N,12836.70193,E,1,05,5.68,58.0,M,22.9,M,,*72
11:03:59  $GNGSA,A,3,15,21,20,,,,,,,,,,8.28,5.68,6.03*15
11:03:59  $GNGSA,A,3,65,66,,,,,,,,,,,8.28,5.68,6.03*13
11:03:59  $GPGSV,3,1,11,02,01,159,,05,39,103,21,13,52,038,,15,71,329,33*7F
11:03:59  $GPGSV,3,2,11,18,22,305,16,20,78,032,24,21,42,297,35,24,42,190,*7D
11:03:59  $GPGSV,3,3,11,28,06,059,,29,05,224,,30,03,037,*47
11:03:59  $GLGSV,1,1,04,65,54,007,23,66,21,300,24,72,30,070,18,74,33,047,18*62
11:03:59  $GNGLL,3553.25536,N,12836.70193,E,110359.00,A,A*7D
11:04:00  $GNRMC,110400.00,A,3553.25541,N,12836.70167,E,0.169,,060917,,,A*63
11:04:00  $GNVTG,,T,,M,0.169,N,0.313,K,A*32
11:04:00  $GNGGA,110400.00,3553.25541,N,12836.70167,E,1,05,5.68,58.5,M,22.9,M,,*77
11:04:00  $GNGSA,A,3,15,21,20,,,,,,,,,,8.28,5.68,6.03*15
11:04:00  $GNGSA,A,3,65,66,,,,,,,,,,,8.28,5.68,6.03*13
11:04:00  $GPGSV,3,1,11,02,01,159,,05,39,103,21,13,52,038,,15,71,329,33*7F
11:04:00  $GPGSV,3,2,11,18,22,305,15,20,78,032,24,21,42,297,35,24,42,190,*7E
11:04:00  $GPGSV,3,3,11,28,06,059,,29,05,224,,30,03,037,*47
11:04:00  $GLGSV,1,1,04,65,54,007,23,66,21,300,25,72,30,070,18,74,33,047,18*63
11:04:00  $GNGLL,3553.25541,N,12836.70167,E,110400.00,A,A*7D
11:04:01  $GNRMC,110401.00,A,3553.25540,N,12836.70143,E,0.201,,060917,,,A*68
11:04:01  $GNVTG,,T,,M,0.201,N,0.372,K,A*38
11:04:01  $GNGGA,110401.00,3553.25540,N,12836.70143,E,1,05,5.68,59.1,M,22.9,M,,*74
11:04:01  $GNGSA,A,3,15,21,20,,,,,,,,,,8.28,5.68,6.03*15
11:04:01  $GNGSA,A,3,65,66,,,,,,,,,,,8.28,5.68,6.03*13
11:04:01  $GPGSV,3,1,11,02,01,159,,05,39,103,22,13,52,038,,15,71,329,34*7B
11:04:01  $GPGSV,3,2,11,18,22,305,15,20,78,032,24,21,42,297,35,24,42,190,*7E
11:04:01  $GPGSV,3,3,11,28,06,059,,29,05,224,,30,03,037,*47
11:04:01  $GLGSV,1,1,04,65,54,007,23,66,21,300,24,72,30,070,19,74,33,047,17*6C
11:04:01  $GNGLL,3553.25540,N,12836.70143,E,110401.00,A,A*7B
11:04:02  $GNRMC,110402.00,A,3553.25528,N,12836.70116,E,0.276,,060917,,,A*65
11:04:02  $GNVTG,,T,,M,0.276,N,0.511,K,A*3B
11:04:02  $GNGGA,110402.00,3553.25528,N,12836.70116,E,1,05,5.68,59.7,M,22.9,M,,*7F
11:04:02  $GNGSA,A,3,15,21,20,,,,,,,,,,8.28,5.68,6.03*15
11:04:02  $GNGSA,A,3,65,66,,,,,,,,,,,8.28,5.68,6.03*13
11:04:02  $GPGSV,3,1,11,02,01,159,,05,39,103,22,13,52,038,,15,71,329,33*7C
11:04:02  $GPGSV,3,2,11,18,22,305,16,20,78,032,24,21,42,297,36,24,42,190,*7E
11:04:02  $GPGSV,3,3,11,28,06,059,,29,05,224,,30,03,037,*47
11:04:02  $GLGSV,1,1,04,65,54,007,23,66,21,300,23,72,30,070,19,74,33,047,16*6A
11:04:02  $GNGLL,3553.25528,N,12836.70116,E,110402.00,A,A*76
11:04:03  $GNRMC,110403.00,A,3553.25499,N,12836.70107,E,0.281,,060917,,,A*67
11:04:03  $GNVTG,,T,,M,0.281,N,0.520,K,A*31
11:04:03  $GNGGA,110403.00,3553.25499,N,12836.70107,E,1,05,5.68,59.7,M,22.9,M,,*75
11:04:03  $GNGSA,A,3,15,21,20,,,,,,,,,,8.28,5.68,6.03*15
11:04:03  $GNGSA,A,3,65,66,,,,,,,,,,,8.28,5.68,6.03*13
11:04:03  $GPGSV,3,1,11,02,01,159,,05,39,103,22,13,52,038,,15,71,329,34*7B
11:04:03  $GPGSV,3,2,11,18,22,305,16,20,78,033,24,21,42,297,36,24,42,190,*7F
11:04:03  $GPGSV,3,3,11,28,06,059,,29,05,224,,30,03,037,*47
11:04:03  $GLGSV,1,1,04,65,54,007,23,66,21,300,22,72,30,070,20,74,33,047,17*60
11:04:03  $GNGLL,3553.25499,N,12836.70107,E,110403.00,A,A*7C
11:04:04  $GNRMC,110404.00,A,3553.25467,N,12836.70098,E,0.290,,060917,,,A*66
11:04:04  $GNVTG,,T,,M,0.290,N,0.537,K,A*37
11:04:04  $GNGGA,110404.00,3553.25467,N,12836.70098,E,1,05,5.67,59.8,M,22.9,M,,*74
11:04:04  $GNGSA,A,3,15,21,20,,,,,,,,,,8.28,5.67,6.04*1D
11:04:04  $GNGSA,A,3,65,66,,,,,,,,,,,8.28,5.67,6.04*1B
11:04:04  $GPGSV,3,1,11,02,01,159,,05,39,103,22,13,52,038,,15,71,329,34*7B
11:04:04  $GPGSV,3,2,11,18,22,305,15,20,78,033,23,21,42,297,36,24,42,190,*7B
11:04:04  $GPGSV,3,3,11,28,06,059,,29,05,224,,30,03,037,*47
11:04:04  $GLGSV,1,1,04,65,54,007,23,66,21,300,22,72,30,070,20,74,33,047,18*6F
11:04:04  $GNGLL,3553.25467,N,12836.70098,E,110404.00,A,A*7D
11:04:05  $GNRMC,110405.00,A,3553.25440,N,12836.70110,E,0.131,,060917,,,A*6B
11:04:05  $GNVTG,,T,,M,0.131,N,0.242,K,A*3A
11:04:05  $GNGGA,110405.00,3553.25440,N,12836.70110,E,1,05,5.67,59.1,M,22.9,M,,*78
11:04:05  $GNGSA,A,3,15,21,20,,,,,,,,,,8.28,5.67,6.04*1D
11:04:05  $GNGSA,A,3,65,66,,,,,,,,,,,8.28,5.67,6.04*1B
11:04:05  $GPGSV,3,1,11,02,01,159,,05,39,103,22,13,52,038,,15,71,329,33*7C
11:04:05  $GPGSV,3,2,11,18,22,305,15,20,78,033,23,21,42,297,36,24,42,190,*7B
11:04:05  $GPGSV,3,3,11,28,06,059,,29,05,224,,30,03,037,*47
11:04:05  $GLGSV,1,1,04,65,54,007,23,66,21,300,22,72,30,070,20,74,33,047,17*60
11:04:05  $GNGLL,3553.25440,N,12836.70110,E,110405.00,A,A*78
11:04:06  $GNRMC,110406.00,A,3553.25423,N,12836.70103,E,0.110,,060917,,,A*6C
11:04:06  $GNVTG,,T,,M,0.110,N,0.203,K,A*3C
11:04:06  $GNGGA,110406.00,3553.25423,N,12836.70103,E,1,05,5.67,59.0,M,22.9,M,,*7D
11:04:06  $GNGSA,A,3,15,21,20,,,,,,,,,,8.28,5.67,6.04*1D
11:04:06  $GNGSA,A,3,65,66,,,,,,,,,,,8.28,5.67,6.04*1B
11:04:06  $GPGSV,3,1,11,02,01,159,,05,39,103,22,13,52,038,,15,71,329,33*7C
11:04:06  $GPGSV,3,2,11,18,22,305,15,20,78,033,23,21,42,297,36,24,42,190,*7B
11:04:06  $GPGSV,3,3,11,28,06,059,,29,05,224,,30,03,037,*47
11:04:06  $GLGSV,1,1,04,65,54,007,22,66,21,300,22,72,30,070,19,74,33,047,17*6B
11:04:06  $GNGLL,3553.25423,N,12836.70103,E,110406.00,A,A*7C
11:04:07  $GNRMC,110407.00,A,3553.25372,N,12836.70082,E,0.276,,060917,,,A*65
11:04:07  $GNVTG,,T,,M,0.276,N,0.511,K,A*3B
11:04:07  $GNGGA,110407.00,3553.25372,N,12836.70082,E,1,05,5.67,59.0,M,22.9,M,,*77
11:04:07  $GNGSA,A,3,15,21,20,,,,,,,,,,8.28,5.67,6.04*1D
11:04:07  $GNGSA,A,3,65,66,,,,,,,,,,,8.28,5.67,6.04*1B
11:04:07  $GPGSV,3,1,11,02,01,159,,05,39,103,23,13,52,038,,15,71,329,33*7D
11:04:07  $GPGSV,3,2,11,18,22,305,18,20,78,033,23,21,42,297,36,24,43,190,*77
11:04:07  $GPGSV,3,3,11,28,06,059,,29,05,224,,30,03,037,*47
11:04:07  $GLGSV,1,1,04,65,54,007,23,66,21,300,23,72,30,070,21,74,33,047,19*6E
11:04:07  $GNGLL,3553.25372,N,12836.70082,E,110407.00,A,A*76
11:04:08  $GNRMC,110408.00,A,3553.25422,N,12836.70083,E,0.266,,060917,,,A*68
11:04:08  $GNVTG,,T,,M,0.266,N,0.493,K,A*31
11:04:08  $GNGGA,110408.00,3553.25422,N,12836.70083,E,1,05,5.67,59.1,M,22.9,M,,*7A
11:04:08  $GNGSA,A,3,15,21,20,,,,,,,,,,8.29,5.67,6.04*1C
11:04:08  $GNGSA,A,3,65,66,,,,,,,,,,,8.29,5.67,6.04*1A
11:04:08  $GPGSV,3,1,11,02,01,159,,05,39,103,22,13,52,038,,15,71,329,34*7B
11:04:08  $GPGSV,3,2,11,18,22,305,18,20,78,033,24,21,42,297,36,24,43,190,*70
11:04:08  $GPGSV,3,3,11,28,06,059,,29,05,224,,30,03,037,*47
11:04:08  $GLGSV,1,1,04,65,54,007,24,66,21,300,24,72,30,070,21,74,33,047,20*64
11:04:08  $GNGLL,3553.25422,N,12836.70083,E,110408.00,A,A*7A
11:04:09  $GNRMC,110409.00,A,3553.25415,N,12836.70050,E,0.154,,060917,,,A*61
11:04:09  $GNVTG,,T,,M,0.154,N,0.285,K,A*32
11:04:09  $GNGGA,110409.00,3553.25415,N,12836.70050,E,1,05,5.67,59.8,M,22.9,M,,*78
11:04:09  $GNGSA,A,3,15,21,20,,,,,,,,,,8.29,5.67,6.04*1C
11:04:09  $GNGSA,A,3,65,66,,,,,,,,,,,8.29,5.67,6.04*1A
11:04:09  $GPGSV,3,1,11,02,01,159,,05,39,103,22,13,52,038,,15,71,329,34*7B
11:04:09  $GPGSV,3,2,11,18,22,305,18,20,78,033,24,21,42,297,36,24,43,190,*70
11:04:09  $GPGSV,3,3,11,28,06,059,,29,05,224,,30,03,037,*47
11:04:09  $GLGSV,1,1,04,65,54,007,23,66,21,300,24,72,30,070,21,74,33,047,19*69
11:04:09  $GNGLL,3553.25415,N,12836.70050,E,110409.00,A,A*71
11:04:10  $GNRMC,110410.00,A,3553.25504,N,12836.70042,E,0.322,,060917,,,A*68
11:04:10  $GNVTG,,T,,M,0.322,N,0.597,K,A*35
11:04:10  $GNGGA,110410.00,3553.25504,N,12836.70042,E,1,05,5.67,60.3,M,22.9,M,,*73
11:04:10  $GNGSA,A,3,15,21,20,,,,,,,,,,8.29,5.67,6.04*1C
11:04:10  $GNGSA,A,3,65,66,,,,,,,,,,,8.29,5.67,6.04*1A
11:04:10  $GPGSV,3,1,11,02,01,159,,05,39,103,23,13,52,038,,15,71,329,33*7D
11:04:10  $GPGSV,3,2,11,18,22,305,19,20,78,033,24,21,42,297,36,24,43,190,*71
11:04:10  $GPGSV,3,3,11,28,06,059,,29,05,224,,30,03,037,*47
11:04:10  $GLGSV,1,1,04,65,54,007,23,66,21,300,25,72,30,070,21,74,33,047,18*69
11:04:10  $GNGLL,3553.25504,N,12836.70042,E,110410.00,A,A*7B
11:04:11  $GNRMC,110411.00,A,3553.25520,N,12836.70072,E,0.386,,060917,,,A*62
11:04:11  $GNVTG,,T,,M,0.386,N,0.714,K,A*32
11:04:11  $GNGGA,110411.00,3553.25520,N,12836.70072,E,1,05,5.67,59.2,M,22.9,M,,*7C
11:04:11  $GNGSA,A,3,15,21,20,,,,,,,,,,8.29,5.67,6.04*1C
11:04:11  $GNGSA,A,3,65,66,,,,,,,,,,,8.29,5.67,6.04*1A
11:04:11  $GPGSV,3,1,11,02,01,159,,05,39,103,22,13,52,038,,15,71,329,33*7C
11:04:11  $GPGSV,3,2,11,18,22,305,19,20,78,033,24,21,42,297,36,24,43,190,*71
11:04:11  $GPGSV,3,3,11,28,06,059,,29,05,224,,30,03,037,*47
11:04:11  $GLGSV,1,1,04,65,54,007,23,66,21,300,25,72,30,070,22,74,33,047,19*6B
11:04:11  $GNGLL,3553.25520,N,12836.70072,E,110411.00,A,A*7F
11:04:12  $GNRMC,110412.00,A,3553.25524,N,12836.70081,E,0.416,,060917,,,A*67
11:04:12  $GNVTG,,T,,M,0.416,N,0.771,K,A*3F
11:04:12  $GNGGA,110412.00,3553.25524,N,12836.70081,E,1,05,5.67,58.6,M,22.9,M,,*72
11:04:12  $GNGSA,A,3,15,21,20,,,,,,,,,,8.29,5.67,6.04*1C
11:04:12  $GNGSA,A,3,65,66,,,,,,,,,,,8.29,5.67,6.04*1A
11:04:12  $GPGSV,3,1,11,02,01,159,,05,39,103,22,13,52,038,,15,71,329,33*7C
11:04:12  $GPGSV,3,2,11,18,22,305,18,20,78,033,23,21,42,297,36,24,43,190,*77
11:04:12  $GPGSV,3,3,11,28,06,059,,29,05,224,,30,03,037,*47
11:04:12  $GLGSV,1,1,04,65,54,007,23,66,21,300,24,72,30,070,22,74,33,047,18*6B
11:04:12  $GNGLL,3553.25524,N,12836.70081,E,110412.00,A,A*74
11:04:13  $GNRMC,110413.00,A,3553.25605,N,12836.70099,E,0.883,,060917,,,A*6F
11:04:13  $GNVTG,,T,,M,0.883,N,1.636,K,A*3C
11:04:13  $GNGGA,110413.00,3553.25605,N,12836.70099,E,1,05,5.67,58.4,M,22.9,M,,*78
11:04:13  $GNGSA,A,3,15,21,20,,,,,,,,,,8.29,5.67,6.04*1C
11:04:13  $GNGSA,A,3,65,66,,,,,,,,,,,8.29,5.67,6.04*1A
11:04:13  $GPGSV,3,1,11,02,01,159,,05,39,103,22,13,52,038,,15,71,329,33*7C
11:04:13  $GPGSV,3,2,11,18,22,305,17,20,78,033,23,21,42,297,36,24,43,190,*78
11:04:13  $GPGSV,3,3,11,28,06,059,,29,05,224,,30,03,037,*47
11:04:13  $GLGSV,1,1,04,65,54,007,22,66,21,300,23,72,30,070,22,74,33,047,18*6D
11:04:13  $GNGLL,3553.25605,N,12836.70099,E,110413.00,A,A*7C
11:04:14  $GNRMC,110414.00,A,3553.25670,N,12836.70108,E,1.122,,060917,,,A*60
11:04:14  $GNVTG,,T,,M,1.122,N,2.078,K,A*30
11:04:14  $GNGGA,110414.00,3553.25670,N,12836.70108,E,1,05,5.67,58.2,M,22.9,M,,*72
11:04:14  $GNGSA,A,3,15,21,20,,,,,,,,,,8.29,5.67,6.04*1C
11:04:14  $GNGSA,A,3,65,66,,,,,,,,,,,8.29,5.67,6.04*1A
11:04:14  $GPGSV,3,1,11,02,01,159,,05,39,103,22,13,52,038,,15,71,329,32*7D
11:04:14  $GPGSV,3,2,11,18,22,305,17,20,78,033,22,21,42,297,36,24,43,190,*79
11:04:14  $GPGSV,3,3,11,28,06,059,,29,05,224,,30,03,037,*47
11:04:14  $GLGSV,1,1,04,65,54,007,21,66,21,300,23,72,30,070,22,74,33,047,18*6E
11:04:14  $GNGLL,3553.25670,N,12836.70108,E,110414.00,A,A*70
11:04:15  $GNRMC,110415.00,A,3553.25668,N,12836.70104,E,1.004,,060917,,,A*61
11:04:15  $GNVTG,,T,,M,1.004,N,1.859,K,A*3D
11:04:15  $GNGGA,110415.00,3553.25668,N,12836.70104,E,1,05,5.67,58.1,M,22.9,M,,*75
11:04:15  $GNGSA,A,3,15,21,20,,,,,,,,,,8.29,5.67,6.04*1C
11:04:15  $GNGSA,A,3,65,66,,,,,,,,,,,8.29,5.67,6.04*1A
11:04:15  $GPGSV,3,1,11,02,01,159,,05,39,103,22,13,52,038,,15,71,329,32*7D
11:04:15  $GPGSV,3,2,11,18,22,305,17,20,78,033,22,21,42,297,36,24,43,190,*79
11:04:15  $GPGSV,3,3,11,28,06,059,,29,05,224,,30,03,037,*47
11:04:15  $GLGSV,1,1,04,65,54,007,21,66,21,300,23,72,30,070,22,74,33,047,18*6E
11:04:15  $GNGLL,3553.25668,N,12836.70104,E,110415.00,A,A*74
11:04:16  $GNRMC,110416.00,A,3553.25716,N,12836.70109,E,1.253,,060917,,,A*67
11:04:16  $GNVTG,,T,,M,1.253,N,2.321,K,A*3A
11:04:16  $GNGGA,110416.00,3553.25716,N,12836.70109,E,1,05,5.67,58.0,M,22.9,M,,*72
11:04:16  $GNGSA,A,3,15,21,20,,,,,,,,,,8.29,5.67,6.04*1C
11:04:16  $GNGSA,A,3,65,66,,,,,,,,,,,8.29,5.67,6.04*1A
11:04:16  $GPGSV,3,1,11,02,01,159,,05,39,103,22,13,52,038,,15,71,329,33*7C
11:04:16  $GPGSV,3,2,11,18,22,305,18,20,78,033,23,21,42,297,36,24,43,190,*77
11:04:16  $GPGSV,3,3,11,28,06,059,,29,05,224,,30,03,037,*47
11:04:16  $GLGSV,1,1,04,65,54,007,21,66,21,300,23,72,30,070,21,74,33,047,18*6D
11:04:16  $GNGLL,3553.25716,N,12836.70109,E,110416.00,A,A*72
11:04:17  $GNRMC,110417.00,A,3553.25773,N,12836.70112,E,1.574,,060917,,,A*6D
11:04:17  $GNVTG,,T,,M,1.574,N,2.916,K,A*36
11:04:17  $GNGGA,110417.00,3553.25773,N,12836.70112,E,1,05,5.67,58.1,M,22.9,M,,*7B
11:04:17  $GNGSA,A,3,15,21,20,,,,,,,,,,8.29,5.67,6.04*1C
11:04:17  $GNGSA,A,3,65,66,,,,,,,,,,,8.29,5.67,6.04*1A
11:04:17  $GPGSV,3,1,11,02,01,159,,05,39,103,22,13,52,038,,15,71,329,33*7C
11:04:17  $GPGSV,3,2,11,18,22,305,17,20,78,033,24,21,42,297,36,24,43,190,*7F
11:04:17  $GPGSV,3,3,11,28,06,059,,29,05,224,,30,03,037,*47
11:04:17  $GLGSV,1,1,04,65,54,007,20,66,21,300,23,72,30,070,22,74,33,047,17*60
11:04:17  $GNGLL,3553.25773,N,12836.70112,E,110417.00,A,A*7A
11:04:18  $GNRMC,110418.00,A,3553.25745,N,12836.70100,E,1.239,,060917,,,A*6A
11:04:18  $GNVTG,,T,,M,1.239,N,2.295,K,A*38
11:04:18  $GNGGA,110418.00,3553.25745,N,12836.70100,E,1,05,5.67,58.2,M,22.9,M,,*71
11:04:18  $GNGSA,A,3,15,21,20,,,,,,,,,,8.29,5.67,6.05*1D
11:04:18  $GNGSA,A,3,65,66,,,,,,,,,,,8.29,5.67,6.05*1B
11:04:18  $GPGSV,3,1,11,02,01,159,,05,39,103,23,13,52,038,,15,71,329,33*7D
11:04:18  $GPGSV,3,2,11,18,22,305,17,20,78,033,24,21,42,297,36,24,43,190,*7F
11:04:18  $GPGSV,3,3,11,28,06,059,,29,05,224,,30,03,037,*47
11:04:18  $GLGSV,1,1,04,65,54,007,20,66,21,300,23,72,30,070,21,74,33,047,17*63
11:04:18  $GNGLL,3553.25745,N,12836.70100,E,110418.00,A,A*73
11:04:19  $GNRMC,110419.00,A,3553.25703,N,12836.70080,E,0.688,,060917,,,A*6F
11:04:19  $GNVTG,,T,,M,0.688,N,1.275,K,A*3A
11:04:19  $GNGGA,110419.00,3553.25703,N,12836.70080,E,1,05,5.67,58.5,M,22.9,M,,*7C
11:04:19  $GNGSA,A,3,15,21,20,,,,,,,,,,8.29,5.67,6.05*1D
11:04:19  $GNGSA,A,3,65,66,,,,,,,,,,,8.29,5.67,6.05*1B
11:04:19  $GPGSV,3,1,11,02,01,159,,05,39,103,23,13,52,038,,15,71,329,33*7D
11:04:19  $GPGSV,3,2,11,18,22,305,16,20,78,033,24,21,42,297,36,24,43,190,*7E
11:04:19  $GPGSV,3,3,11,28,06,059,,29,05,224,,30,03,037,*47
11:04:19  $GLGSV,1,1,04,65,54,007,21,66,21,301,23,72,30,070,22,74,33,047,17*60
11:04:19  $GNGLL,3553.25703,N,12836.70080,E,110419.00,A,A*79
11:04:20  $GNRMC,110420.00,A,3553.25813,N,12836.70080,E,1.010,,060917,,,A*6D
11:04:20  $GNVTG,,T,,M,1.010,N,1.870,K,A*33
11:04:20  $GNGGA,110420.00,3553.25813,N,12836.70080,E,1,05,5.67,59.1,M,22.9,M,,*7D
11:04:20  $GNGSA,A,3,15,21,20,,,,,,,,,,8.29,5.67,6.05*1D
11:04:20  $GNGSA,A,3,65,66,,,,,,,,,,,8.29,5.67,6.05*1B
11:04:20  $GPGSV,3,1,11,02,01,159,,05,39,103,23,13,52,038,,15,71,329,33*7D
11:04:20  $GPGSV,3,2,11,18,22,305,16,20,78,033,24,21,42,297,36,24,43,190,*7E
11:04:20  $GPGSV,3,3,11,28,06,059,,29,05,224,,30,03,037,*47
11:04:20  $GLGSV,1,1,04,65,54,007,20,66,21,301,23,72,30,070,23,74,33,047,17*60
11:04:20  $GNGLL,3553.25813,N,12836.70080,E,110420.00,A,A*7D
11:04:21  $GNRMC,110421.00,A,3553.25855,N,12836.70078,E,0.962,,060917,,,A*64
11:04:21  $GNVTG,,T,,M,0.962,N,1.781,K,A*3F
11:04:21  $GNGGA,110421.00,3553.25855,N,12836.70078,E,1,05,5.67,59.3,M,22.9,M,,*7B
11:04:21  $GNGSA,A,3,15,21,20,,,,,,,,,,8.29,5.67,6.05*1D
11:04:21  $GNGSA,A,3,65,66,,,,,,,,,,,8.29,5.67,6.05*1B
11:04:21  $GPGSV,3,1,11,02,01,159,,05,39,103,24,13,52,038,,15,71,329,33*7A
11:04:21  $GPGSV,3,2,11,18,22,305,15,20,78,033,24,21,42,297,36,24,43,190,*7D
11:04:21  $GPGSV,3,3,11,28,06,059,,29,05,224,,30,03,037,*47
11:04:21  $GLGSV,1,1,04,65,54,007,20,66,21,301,23,72,30,070,23,74,33,047,18*6F
11:04:21  $GNGLL,3553.25855,N,12836.70078,E,110421.00,A,A*79
11:04:22  $GNRMC,110422.00,A,3553.25898,N,12836.70092,E,1.059,,060917,,,A*62
11:04:22  $GNVTG,,T,,M,1.059,N,1.962,K,A*3C
11:04:22  $GNGGA,110422.00,3553.25898,N,12836.70092,E,1,05,5.67,59.1,M,22.9,M,,*7F
11:04:22  $GNGSA,A,3,15,21,20,,,,,,,,,,8.29,5.67,6.05*1D
11:04:22  $GNGSA,A,3,65,66,,,,,,,,,,,8.29,5.67,6.05*1B
11:04:22  $GPGSV,3,1,11,02,01,159,,05,39,103,24,13,52,038,,15,71,329,32*7B
11:04:22  $GPGSV,3,2,11,18,22,305,16,20,78,033,24,21,42,297,36,24,43,190,*7E
11:04:22  $GPGSV,3,3,11,28,06,059,,29,05,224,,30,03,037,*47
11:04:22  $GLGSV,1,1,04,65,54,007,19,66,21,301,23,72,30,070,23,74,33,047,18*65
11:04:22  $GNGLL,3553.25898,N,12836.70092,E,110422.00,A,A*7F
11:04:23  $GNRMC,110423.00,A,3553.25821,N,12836.70086,E,0.581,,060917,,,A*65
11:04:23  $GNVTG,,T,,M,0.581,N,1.077,K,A*30
11:04:23  $GNGGA,110423.00,3553.25821,N,12836.70086,E,1,05,5.67,58.8,M,22.9,M,,*71
11:04:23  $GNGSA,A,3,15,21,20,,,,,,,,,,8.29,5.67,6.05*1D
11:04:23  $GNGSA,A,3,65,66,,,,,,,,,,,8.29,5.67,6.05*1B
11:04:23  $GPGSV,3,1,11,02,01,159,,05,39,103,23,13,52,038,,15,71,329,32*7C
11:04:23  $GPGSV,3,2,11,18,22,305,17,20,78,033,22,21,42,297,36,24,43,190,*79
11:04:23  $GPGSV,3,3,11,28,06,059,,29,05,224,,30,03,037,*47
11:04:23  $GLGSV,1,1,04,65,54,007,18,66,21,301,23,72,30,070,22,74,33,047,17*6A
11:04:23  $GNGLL,3553.25821,N,12836.70086,E,110423.00,A,A*79
11:04:24  $GNRMC,110424.00,A,3553.25569,N,12836.70027,E,0.793,,060917,,,A*69
11:04:24  $GNVTG,,T,,M,0.793,N,1.468,K,A*3B
11:04:24  $GNGGA,110424.00,3553.25569,N,12836.70027,E,1,05,5.67,59.0,M,22.9,M,,*75
11:04:24  $GNGSA,A,3,15,21,20,,,,,,,,,,8.29,5.67,6.05*1D
11:04:24  $GNGSA,A,3,65,66,,,,,,,,,,,8.29,5.67,6.05*1B
11:04:24  $GPGSV,3,1,11,02,01,159,,05,39,103,22,13,52,038,,15,71,329,32*7D
11:04:24  $GPGSV,3,2,11,18,22,305,17,20,78,033,22,21,42,297,36,24,43,190,*79
11:04:24  $GPGSV,3,3,11,28,06,059,,29,05,224,,30,03,037,*47
11:04:24  $GLGSV,1,1,04,65,54,007,16,66,21,301,23,72,30,070,22,74,33,047,17*64
11:04:24  $GNGLL,3553.25569,N,12836.70027,E,110424.00,A,A*74
11:04:25  $GNRMC,110425.00,A,3553.25516,N,12836.70009,E,0.661,,060917,,,A*60
11:04:25  $GNVTG,,T,,M,0.661,N,1.224,K,A*39
11:04:25  $GNGGA,110425.00,3553.25516,N,12836.70009,E,1,05,5.66,59.4,M,22.9,M,,*75
11:04:25  $GNGSA,A,3,15,21,20,,,,,,,,,,8.29,5.66,6.05*1C
11:04:25  $GNGSA,A,3,65,66,,,,,,,,,,,8.29,5.66,6.05*1A
11:04:25  $GPGSV,3,1,11,02,01,159,,05,39,103,23,13,52,038,,15,71,329,31*7F
11:04:25  $GPGSV,3,2,11,18,22,305,17,20,78,033,22,21,42,297,36,24,43,190,*79
11:04:25  $GPGSV,3,3,11,28,06,059,,29,05,224,,30,03,037,*47
11:04:25  $GLGSV,1,1,04,65,54,007,15,66,21,301,23,72,30,070,22,74,33,047,16*66
11:04:25  $GNGLL,3553.25516,N,12836.70009,E,110425.00,A,A*71
11:04:26  $GNRMC,110426.00,A,3553.25464,N,12836.69986,E,0.733,,060917,,,A*67
11:04:26  $GNVTG,,T,,M,0.733,N,1.357,K,A*3A
11:04:26  $GNGGA,110426.00,3553.25464,N,12836.69986,E,1,05,5.66,59.5,M,22.9,M,,*75
11:04:26  $GNGSA,A,3,15,21,20,,,,,,,,,,8.29,5.66,6.05*1C
11:04:26  $GNGSA,A,3,65,66,,,,,,,,,,,8.29,5.66,6.05*1A
11:04:26  $GPGSV,3,1,11,02,01,159,,05,39,103,22,13,52,038,,15,71,329,31*7E
11:04:26  $GPGSV,3,2,11,18,22,305,16,20,78,033,21,21,42,297,36,24,43,190,*7B
11:04:26  $GPGSV,3,3,11,28,06,059,,29,05,224,,30,03,037,*47
11:04:26  $GLGSV,1,1,04,65,54,007,13,66,21,301,22,72,30,070,22,74,33,047,16*61
11:04:26  $GNGLL,3553.25464,N,12836.69986,E,110426.00,A,A*70
11:04:27  $GNRMC,110427.00,A,3553.25514,N,12836.69969,E,0.438,,060917,,,A*69
11:04:27  $GNVTG,,T,,M,0.438,N,0.810,K,A*3B
11:04:27  $GNGGA,110427.00,3553.25514,N,12836.69969,E,1,05,5.66,59.9,M,22.9,M,,*7F
11:04:27  $GNGSA,A,3,15,21,20,,,,,,,,,,8.29,5.66,6.05*1C
11:04:27  $GNGSA,A,3,65,66,,,,,,,,,,,8.29,5.66,6.05*1A
11:04:27  $GPGSV,3,1,11,02,01,159,,05,39,103,22,13,52,038,,15,71,329,31*7E
11:04:27  $GPGSV,3,2,11,18,22,305,15,20,78,033,21,21,42,297,36,24,43,190,*78
11:04:27  $GPGSV,3,3,11,28,06,059,,29,05,224,08,30,03,037,*4F
11:04:27  $GLGSV,1,1,04,65,54,007,11,66,21,301,22,72,30,070,23,74,33,047,17*63
11:04:27  $GNGLL,3553.25514,N,12836.69969,E,110427.00,A,A*76
11:04:28  $GNRMC,110428.00,A,3553.25530,N,12836.70000,E,0.256,,060917,,,A*60
11:04:28  $GNVTG,,T,,M,0.256,N,0.475,K,A*3A
11:04:28  $GNGGA,110428.00,3553.25530,N,12836.70000,E,1,05,5.66,59.0,M,22.9,M,,*71
11:04:28  $GNGSA,A,3,15,21,20,,,,,,,,,,8.29,5.66,6.05*1C
11:04:28  $GNGSA,A,3,65,66,,,,,,,,,,,8.29,5.66,6.05*1A
11:04:28  $GPGSV,3,1,11,02,01,159,,05,39,103,23,13,52,038,,15,71,329,31*7F
11:04:28  $GPGSV,3,2,11,18,22,305,15,20,78,033,22,21,42,297,36,24,43,190,*7B
11:04:28  $GPGSV,3,3,11,28,06,059,,29,05,224,10,30,03,037,*46
11:04:28  $GLGSV,1,1,04,65,54,007,13,66,21,301,22,72,30,070,23,74,33,047,17*61
11:04:28  $GNGLL,3553.25530,N,12836.70000,E,110428.00,A,A*71
11:04:29  $GNRMC,110429.00,A,3553.25554,N,12836.70002,E,0.370,,060917,,,A*64
11:04:29  $GNVTG,,T,,M,0.370,N,0.685,K,A*32
11:04:29  $GNGGA,110429.00,3553.25554,N,12836.70002,E,1,05,5.66,59.1,M,22.9,M,,*71
11:04:29  $GNGSA,A,3,15,21,20,,,,,,,,,,8.29,5.66,6.05*1C
11:04:29  $GNGSA,A,3,65,66,,,,,,,,,,,8.29,5.66,6.05*1A
11:04:29  $GPGSV,3,1,11,02,01,159,,05,39,103,22,13,52,038,,15,71,329,31*7E
11:04:29  $GPGSV,3,2,11,18,22,305,15,20,78,033,22,21,42,297,36,24,43,190,*7B
11:04:29  $GPGSV,3,3,11,28,06,059,,29,05,224,13,30,03,037,*45
11:04:29  $GLGSV,1,1,04,65,54,007,14,66,21,301,22,72,30,070,22,74,33,047,17*67
11:04:29  $GNGLL,3553.25554,N,12836.70002,E,110429.00,A,A*70
11:04:30  $GNRMC,110430.00,A,3553.25433,N,12836.69999,E,0.638,,060917,,,A*66
11:04:30  $GNVTG,,T,,M,0.638,N,1.181,K,A*39
11:04:30  $GNGGA,110430.00,3553.25433,N,12836.69999,E,1,05,5.66,58.5,M,22.9,M,,*7F
11:04:30  $GNGSA,A,3,15,21,20,,,,,,,,,,8.29,5.66,6.05*1C
11:04:30  $GNGSA,A,3,65,66,,,,,,,,,,,8.29,5.66,6.05*1A
11:04:30  $GPGSV,3,1,11,02,01,159,,05,39,103,22,13,52,038,,15,71,329,30*7F
11:04:30  $GPGSV,3,2,11,18,22,305,15,20,78,033,22,21,42,297,36,24,43,190,*7B
11:04:30  $GPGSV,3,3,11,28,06,059,,29,05,224,14,30,03,037,*42
11:04:30  $GLGSV,1,1,04,65,54,007,15,66,21,301,22,72,30,070,23,74,33,047,16*66
11:04:30  $GNGLL,3553.25433,N,12836.69999,E,110430.00,A,A*7B
11:04:31  $GNRMC,110431.00,A,3553.25527,N,12836.70044,E,0.185,,060917,,,A*63
11:04:31  $GNVTG,,T,,M,0.185,N,0.343,K,A*35
11:04:31  $GNGGA,110431.00,3553.25527,N,12836.70044,E,1,05,5.66,57.8,M,22.9,M,,*79
11:04:31  $GNGSA,A,3,15,21,20,,,,,,,,,,8.29,5.66,6.05*1C
11:04:31  $GNGSA,A,3,65,66,,,,,,,,,,,8.29,5.66,6.05*1A
11:04:31  $GPGSV,3,1,11,02,01,159,,05,39,103,22,13,52,038,,15,71,329,31*7E
11:04:31  $GPGSV,3,2,11,18,22,305,16,20,78,033,22,21,42,297,36,24,43,190,*78
11:04:31  $GPGSV,3,3,11,28,06,059,,29,05,224,14,30,03,037,*42
11:04:31  $GLGSV,1,1,04,65,54,007,15,66,21,301,22,72,30,070,22,74,33,047,16*67
11:04:31  $GNGLL,3553.25527,N,12836.70044,E,110431.00,A,A*7F
11:04:32  $GNRMC,110432.00,A,3553.25615,N,12836.70062,E,0.479,,060917,,,A*60
11:04:32  $GNVTG,,T,,M,0.479,N,0.887,K,A*30
11:04:32  $GNGGA,110432.00,3553.25615,N,12836.70062,E,1,05,5.66,57.6,M,22.9,M,,*72
11:04:32  $GNGSA,A,3,15,21,20,,,,,,,,,,8.29,5.66,6.05*1C
11:04:32  $GNGSA,A,3,65,66,,,,,,,,,,,8.29,5.66,6.05*1A
11:04:32  $GPGSV,3,1,11,02,01,159,,05,39,103,23,13,52,038,,15,71,329,31*7F
11:04:32  $GPGSV,3,2,11,18,22,305,16,20,78,033,23,21,42,297,36,24,43,190,*79
11:04:32  $GPGSV,3,3,11,28,06,059,,29,05,224,15,30,03,037,*43
11:04:32  $GLGSV,1,1,04,65,54,007,13,66,21,301,22,72,30,070,23,74,33,047,15*63
11:04:32  $GNGLL,3553.25615,N,12836.70062,E,110432.00,A,A*7A
11:04:33  $GNRMC,110433.00,A,3553.25592,N,12836.70081,E,0.433,,060917,,,A*6E
11:04:33  $GNVTG,,T,,M,0.433,N,0.803,K,A*32
11:04:33  $GNGGA,110433.00,3553.25592,N,12836.70081,E,1,05,5.66,57.0,M,22.9,M,,*74
11:04:33  $GNGSA,A,3,15,21,20,,,,,,,,,,8.29,5.66,6.06*1F
11:04:33  $GNGSA,A,3,65,66,,,,,,,,,,,8.29,5.66,6.06*19
11:04:33  $GPGSV,3,1,11,02,01,159,,05,39,103,23,13,52,038,,15,71,329,30*7E
11:04:33  $GPGSV,3,2,11,18,22,305,16,20,78,033,23,21,42,297,36,24,43,190,*79
11:04:33  $GPGSV,3,3,11,28,06,059,,29,05,224,16,30,03,037,*40
11:04:33  $GLGSV,1,1,04,65,54,007,13,66,21,301,21,72,30,070,23,74,33,047,15*60
11:04:33  $GNGLL,3553.25592,N,12836.70081,E,110433.00,A,A*7A
11:04:34  $GNRMC,110434.00,A,3553.25598,N,12836.70047,E,0.287,,060917,,,A*60
11:04:34  $GNVTG,,T,,M,0.287,N,0.532,K,A*34
11:04:34  $GNGGA,110434.00,3553.25598,N,12836.70047,E,1,05,5.66,58.0,M,22.9,M,,*7C
11:04:34  $GNGSA,A,3,15,21,20,,,,,,,,,,8.29,5.66,6.06*1F
11:04:34  $GNGSA,A,3,65,66,,,,,,,,,,,8.29,5.66,6.06*19
11:04:34  $GPGSV,3,1,11,02,01,159,,05,39,104,23,13,52,038,,15,71,329,30*79
11:04:34  $GPGSV,3,2,11,18,22,305,16,20,78,033,23,21,42,297,36,24,43,190,*79
11:04:34  $GPGSV,3,3,11,28,06,059,,29,05,224,15,30,03,037,*43
11:04:34  $GLGSV,1,1,04,65,54,007,12,66,21,301,22,72,30,070,23,74,33,047,14*63
11:04:34  $GNGLL,3553.25598,N,12836.70047,E,110434.00,A,A*7D
11:04:35  $GNRMC,110435.00,A,3553.25450,N,12836.70043,E,0.088,,060917,,,A*6D
11:04:35  $GNVTG,,T,,M,0.088,N,0.162,K,A*38
11:04:35  $GNGGA,110435.00,3553.25450,N,12836.70043,E,1,05,5.66,57.7,M,22.9,M,,*74
11:04:35  $GNGSA,A,3,15,21,20,,,,,,,,,,8.29,5.66,6.06*1F
11:04:35  $GNGSA,A,3,65,66,,,,,,,,,,,8.29,5.66,6.06*19
11:04:35  $GPGSV,3,1,11,02,01,159,,05,39,104,23,13,52,038,,15,71,329,30*79
11:04:35  $GPGSV,3,2,11,18,22,305,14,20,78,033,23,21,42,297,37,24,43,190,*7A
11:04:35  $GPGSV,3,3,11,28,06,059,,29,05,224,15,30,03,037,*43
11:04:35  $GLGSV,1,1,04,65,54,007,11,66,21,301,22,72,30,070,23,74,33,047,12*66
11:04:35  $GNGLL,3553.25450,N,12836.70043,E,110435.00,A,A*7D
11:04:36  $GNRMC,110436.00,A,3553.25473,N,12836.70081,E,0.398,,060917,,,A*63
11:04:36  $GNVTG,,T,,M,0.398,N,0.738,K,A*33
11:04:36  $GNGGA,110436.00,3553.25473,N,12836.70081,E,1,04,15.40,56.7,M,22.9,M,,*4D
11:04:36  $GNGSA,A,3,15,21,20,,,,,,,,,,16.71,15.40,6.49*13
11:04:36  $GNGSA,A,3,66,,,,,,,,,,,,16.71,15.40,6.49*16
11:04:36  $GPGSV,3,1,11,02,01,159,,05,39,104,25,13,52,038,,15,71,329,31*7E
11:04:36  $GPGSV,3,2,11,18,22,305,13,20,78,033,23,21,42,297,36,24,43,190,*7C
11:04:36  $GPGSV,3,3,11,28,06,059,,29,05,224,16,30,03,037,*40
11:04:36  $GLGSV,1,1,04,65,54,007,09,66,21,301,22,72,30,070,23,74,33,047,11*6C
11:04:36  $GNGLL,3553.25473,N,12836.70081,E,110436.00,A,A*71
11:04:37  $GNRMC,110437.00,A,3553.25502,N,12836.70097,E,0.425,,060917,,,A*63
11:04:37  $GNVTG,,T,,M,0.425,N,0.786,K,A*37
11:04:37  $GNGGA,110437.00,3553.25502,N,12836.70097,E,1,04,15.36,56.3,M,22.9,M,,*49
11:04:37  $GNGSA,A,3,15,21,20,,,,,,,,,,16.68,15.36,6.49*1A
11:04:37  $GNGSA,A,3,66,,,,,,,,,,,,16.68,15.36,6.49*1F
11:04:37  $GPGSV,3,1,11,02,01,159,,05,39,104,25,13,52,038,,15,71,329,31*7E
11:04:37  $GPGSV,3,2,11,18,22,305,13,20,78,033,22,21,42,297,36,24,43,190,*7D
11:04:37  $GPGSV,3,3,11,28,06,059,,29,05,224,14,30,03,037,*42
11:04:37  $GLGSV,1,1,04,65,54,007,08,66,21,301,22,72,30,070,23,74,33,047,12*6E
11:04:37  $GNGLL,3553.25502,N,12836.70097,E,110437.00,A,A*70
11:04:38  $GNRMC,110438.00,A,3553.25467,N,12836.70115,E,0.294,,060917,,,A*69
11:04:38  $GNVTG,,T,,M,0.294,N,0.545,K,A*36
11:04:38  $GNGGA,110438.00,3553.25467,N,12836.70115,E,1,04,15.32,55.7,M,22.9,M,,*4C
11:04:38  $GNGSA,A,3,15,21,20,,,,,,,,,,16.64,15.32,6.49*12
11:04:38  $GNGSA,A,3,66,,,,,,,,,,,,16.64,15.32,6.49*17
11:04:38  $GPGSV,3,1,11,02,01,159,,05,39,104,25,13,52,038,,15,71,329,30*7F
11:04:38  $GPGSV,3,2,11,18,22,305,14,20,78,033,23,21,42,297,36,24,43,190,17*7D
11:04:38  $GPGSV,3,3,11,28,06,059,,29,05,224,16,30,03,037,*40
11:04:38  $GLGSV,1,1,04,65,54,007,08,66,21,301,22,72,30,070,23,74,33,047,13*6F
11:04:38  $GNGLL,3553.25467,N,12836.70115,E,110438.00,A,A*76
11:04:39  $GNRMC,110439.00,A,3553.25483,N,12836.70094,E,0.214,,060917,,,A*62
11:04:39  $GNVTG,,T,,M,0.214,N,0.396,K,A*36
11:04:39  $GNGGA,110439.00,3553.25483,N,12836.70094,E,1,04,15.28,56.2,M,22.9,M,,*42
11:04:39  $GNGSA,A,3,15,21,20,,,,,,,,,,16.60,15.28,6.49*1D
11:04:39  $GNGSA,A,3,66,,,,,,,,,,,,16.60,15.28,6.49*18
11:04:39  $GPGSV,3,1,11,02,01,159,,05,39,104,25,13,52,038,,15,71,329,30*7F
11:04:39  $GPGSV,3,2,11,18,22,305,13,20,78,033,23,21,42,297,36,24,43,190,16*7B
11:04:39  $GPGSV,3,3,11,28,06,059,,29,05,224,15,30,03,037,*43
11:04:39  $GLGSV,1,1,04,65,54,007,08,66,21,301,22,72,30,070,23,74,33,047,13*6F
11:04:39  $GNGLL,3553.25483,N,12836.70094,E,110439.00,A,A*75
11:04:40  $GNRMC,110440.00,A,3553.25479,N,12836.70137,E,0.178,,060917,,,A*68
11:04:40  $GNVTG,,T,,M,0.178,N,0.329,K,A*3B
11:04:40  $GNGGA,110440.00,3553.25479,N,12836.70137,E,1,05,5.66,55.1,M,22.9,M,,*7B
11:04:40  $GNGSA,A,3,15,21,20,,,,,,,,,,8.29,5.66,6.06*1F
11:04:40  $GNGSA,A,3,65,66,,,,,,,,,,,8.29,5.66,6.06*19
11:04:40  $GPGSV,3,1,11,02,01,159,,05,39,104,24,13,52,038,,15,71,329,30*7E
11:04:40  $GPGSV,3,2,11,18,22,305,11,20,78,033,23,21,42,297,36,24,43,190,17*78
11:04:40  $GPGSV,3,3,11,28,06,059,,29,05,224,15,30,03,037,*43
11:04:40  $GLGSV,1,1,04,65,54,007,10,66,21,301,22,72,30,070,23,74,33,047,14*61
11:04:40  $GNGLL,3553.25479,N,12836.70137,E,110440.00,A,A*76
11:04:41  [20:04:40]  $GNRMC,110441.00,A,3553.25581,N,12836.70162,E,0.424,,060917,,,A*63
11:04:41  [20:04:40]  $GNVTG,,T,,M,0.424,N,0.785,K,A*35
11:04:41  [20:04:40]  $GNGGA,110441.00,3553.25581,N,12836.70162,E,1,05,5.66,54.4,M,22.9,M,,*78
11:04:41  [20:04:40]  $GNGSA,A,3,15,21,20,,,,,,,,,,8.29,5.66,6.06*1F
11:04:41  [20:04:40]  $GNGSA,A,3,65,66,,,,,,,,,,,8.29,5.66,6.06*19
11:04:41  [20:04:40]  $GPGSV,3,1,11,02,01,159,,05,39,104,24,13,52,038,,15,71,329,30*7E
11:04:41  [20:04:40]  $GPGSV,3,2,11,18,22,305,13,20,78,033,23,21,42,297,36,24,43,190,17*7A
11:04:41  [20:04:40]  $GPGSV,3,3,11,28,06,059,,29,05,224,14,30,03,037,*42
11:04:41  [20:04:40]  $GLGSV,1,1,04,65,54,007,10,66,21,301,23,72,30,070,22,74,33,047,12*67
11:04:41  [20:04:40]  $GNGLL,3553.25581,N,12836.70162,E,110441.00,A,A*71
11:04:41  [20:04:41]  DEBUG: LOCKDET chn 11, sv R10, reason DFTMAG (loop 5)
11:04:42  [20:04:41]  $GNRMC,110442.00,A,3553.25664,N,12836.70175,E,0.419,,060917,,,A*60
11:04:42  [20:04:41]  $GNVTG,,T,,M,0.419,N,0.776,K,A*37
11:04:42  [20:04:41]  $GNGGA,110442.00,3553.25664,N,12836.70175,E,1,05,5.66,54.5,M,22.9,M,,*74
11:04:42  [20:04:41]  $GNGSA,A,3,15,21,20,,,,,,,,,,8.29,5.66,6.06*1F
11:04:42  [20:04:41]  $GNGSA,A,3,65,66,,,,,,,,,,,8.29,5.66,6.06*19
11:04:42  [20:04:41]  $GPGSV,3,1,11,02,01,159,,05,39,104,25,13,51,039,,15,71,329,29*75
11:04:42  [20:04:41]  $GPGSV,3,2,11,18,22,305,12,20,78,033,22,21,42,297,36,24,43,190,16*7B
11:04:42  [20:04:41]  $GPGSV,3,3,11,28,06,059,,29,05,224,14,30,03,037,*42
11:04:42  [20:04:41]  $GLGSV,1,1,04,65,54,007,10,66,21,301,22,72,30,070,22,74,33,047,10*64
11:04:42  [20:04:41]  $GNGLL,3553.25664,N,12836.70175,E,110442.00,A,A*7C
11:04:43  [20:04:42]  $GNRMC,110443.00,A,3553.25686,N,12836.70192,E,0.457,,060917,,,A*6E
11:04:43  [20:04:42]  $GNVTG,,T,,M,0.457,N,0.846,K,A*31
11:04:43  [20:04:42]  $GNGGA,110443.00,3553.25686,N,12836.70192,E,1,05,5.66,54.0,M,22.9,M,,*75
11:04:43  [20:04:42]  $GNGSA,A,3,15,21,20,,,,,,,,,,8.29,5.66,6.06*1F
11:04:43  [20:04:42]  $GNGSA,A,3,65,66,,,,,,,,,,,8.29,5.66,6.06*19
11:04:43  [20:04:42]  $GPGSV,3,1,11,02,01,159,,05,39,104,25,13,51,039,,15,71,330,30*75
11:04:43  [20:04:42]  $GPGSV,3,2,11,18,22,305,12,20,78,035,22,21,42,297,36,24,43,190,16*7D
11:04:43  [20:04:42]  $GPGSV,3,3,11,28,06,059,,29,05,224,13,30,03,037,*45
