opening serial port successful
$GNTXT,01,01,02,u-blox AG - www.u-blox.com*4E
$GNTXT,01,01,02,HW UBX-M8030 00080000*60
$GNTXT,01,01,02,EXT CORE 3.01 (d080e3)*36
$GNTXT,01,01,02,ROM BASE 2.01 (75331)*19
$GNTXT,01,01,02,FWVER=HPG 1.30REF*0C
$GNTXT,01,01,02,PROTVER=20.20*18
$GNTXT,01,01,02,MOD=NEO-M8P-2*7B
$GNTXT,01,01,02,FIS=0xEF4015 (100111)*58
$GNTXT,01,01,02,GPS;GLO;BDS*06
$GNTXT,01,01,02,QZSS*58
$GNTXT,01,01,02,GNSS OTP=GPS;GLO*37
$GNTXT,01,01,02,LLC=FFFFFFFF-FFFFFFED-FFFFFFFF-FFFFF79E-FFFFFF69*2E
$GNTXT,01,01,02,ANTSUPERV=AC SD PDoS SR*3E
$GNTXT,01,01,02,ANTSTATUS=OK*25
$GNTXT,01,01,02,PF=300*4B
$GNRMC,065117.00,A,3553.25589,N,12836.70193,E,0.342,,090917,,,A*68
$GNVTG,,T,,M,0.342,N,0.633,K,A*3E
$GNGGA,065117.00,3553.25589,N,12836.70193,E,1,11,0.89,56.6,M,22.9,M,,*7A
$GNGSA,A,3,06,12,19,02,05,09,,,,,,,1.54,0.89,1.26*1B
$GNGSA,A,3,88,81,65,66,67,,,,,,,,1.54,0.89,1.26*13
$GPGSV,4,1,14,02,66,335,23,05,45,269,22,06,56,089,30,07,12,096,*7A
$GPGSV,4,2,14,09,30,048,19,12,11,254,22,13,14,195,18,17,09,160,10*7E
$GPGSV,4,3,14,19,29,166,20,20,03,257,,23,05,038,12,25,07,288,16*73
$GPGSV,4,4,14,29,11,322,,30,07,128,*7B
$GLGSV,2,1,06,65,22,036,11,66,73,337,28,67,37,238,22,81,80,341,30*67
$GLGSV,2,2,06,82,27,329,15,88,43,145,10*66
$GNGLL,3553.25589,N,12836.70193,E,065117.00,A,A*72
$GNRMC,065118.00,A,3553.25566,N,12836.70180,E,0.228,,090917,,,A*69
$GNVTG,,T,,M,0.228,N,0.423,K,A*30
$GNGGA,065118.00,3553.25566,N,12836.70180,E,1,11,0.89,56.8,M,22.9,M,,*78
$GNGSA,A,3,06,12,19,02,05,09,,,,,,,1.54,0.89,1.26*1B
$GNGSA,A,3,88,81,65,66,67,,,,,,,,1.54,0.89,1.26*13
$GPGSV,4,1,14,02,66,335,23,05,45,269,23,06,56,089,30,07,12,096,*7B
$GPGSV,4,2,14,09,30,048,20,12,11,254,22,13,14,195,18,17,09,160,11*75
$GPGSV,4,3,14,19,29,166,20,20,03,257,,23,05,038,11,25,07,288,14*72
$GPGSV,4,4,14,29,11,322,,30,07,128,*7B
$GLGSV,2,1,06,65,22,036,09,66,73,337,28,67,37,238,22,81,80,341,30*6E
$GLGSV,2,2,06,82,27,329,14,88,43,145,08*6E
$GNGLL,3553.25566,N,12836.70180,E,065118.00,A,A*7E
$GNRMC,065119.00,A,3553.25534,N,12836.70168,E,0.563,,090917,,,A*61
$GNVTG,,T,,M,0.563,N,1.043,K,A*3B
$GNGGA,065119.00,3553.25534,N,12836.70168,E,1,11,0.89,57.0,M,22.9,M,,*71
$GNGSA,A,3,06,12,19,02,05,09,,,,,,,1.54,0.89,1.26*1B
$GNGSA,A,3,88,81,65,66,67,,,,,,,,1.54,0.89,1.26*13
$GPGSV,4,1,14,02,66,335,23,05,45,269,22,06,56,089,30,07,12,096,*7A
$GPGSV,4,2,14,09,30,048,21,12,11,254,21,13,14,195,18,17,09,160,12*74
$GPGSV,4,3,14,19,29,166,21,20,03,257,,23,05,038,09,25,07,288,12*7C
$GPGSV,4,4,14,29,11,322,,30,07,128,*7B
$GLGSV,2,1,06,65,22,036,12,66,73,337,28,67,37,238,21,81,80,341,30*67
$GLGSV,2,2,06,82,27,329,11,88,43,145,07*64
$GNGLL,3553.25534,N,12836.70168,E,065119.00,A,A*7E
$GNRMC,065120.00,A,3553.25552,N,12836.70173,E,0.204,,090917,,,A*67
$GNVTG,,T,,M,0.204,N,0.378,K,A*37
$GNGGA,065120.00,3553.25552,N,12836.70173,E,1,11,0.89,57.4,M,22.9,M,,*75
$GNGSA,A,3,06,12,19,02,05,09,,,,,,,1.54,0.89,1.25*18
$GNGSA,A,3,88,81,65,66,67,,,,,,,,1.54,0.89,1.25*10
$GPGSV,4,1,14,02,66,335,23,05,45,269,22,06,56,089,30,07,12,096,*7A
$GPGSV,4,2,14,09,30,048,21,12,11,254,22,13,14,195,17,17,09,160,11*7B
$GPGSV,4,3,14,19,29,166,21,20,03,257,,23,05,038,10,25,07,288,11*77
$GPGSV,4,4,14,29,11,322,,30,07,128,*7B
$GLGSV,2,1,06,65,22,036,12,66,73,337,28,67,37,238,21,81,81,340,30*67
$GLGSV,2,2,06,82,27,329,10,88,43,145,07*65
$GNGLL,3553.25552,N,12836.70173,E,065120.00,A,A*7E
$GNRMC,065121.00,A,3553.25585,N,12836.70183,E,0.469,,090917,,,A*6E
$GNVTG,,T,,M,0.469,N,0.868,K,A*30
$GNGGA,065121.00,3553.25585,N,12836.70183,E,1,11,0.89,57.5,M,22.9,M,,*70
$GNGSA,A,3,06,12,19,02,05,09,,,,,,,1.54,0.89,1.25*18
$GNGSA,A,3,88,81,65,66,67,,,,,,,,1.54,0.89,1.25*10
$GPGSV,4,1,14,02,66,335,23,05,45,269,22,06,56,089,30,07,12,096,*7A
$GPGSV,4,2,14,09,30,048,21,12,11,254,22,13,14,195,17,17,09,160,12*78
$GPGSV,4,3,14,19,29,166,20,20,03,257,,23,05,038,07,25,07,288,13*72
$GPGSV,4,4,14,29,11,322,,30,07,128,*7B
$GLGSV,2,1,06,65,22,036,10,66,73,337,28,67,37,238,20,81,81,340,30*64
$GLGSV,2,2,06,82,27,329,11,88,43,145,09*6A
$GNGLL,3553.25585,N,12836.70183,E,065121.00,A,A*7A
$GNRMC,065122.00,A,3553.25557,N,12836.70181,E,0.087,,090917,,,A*64
$GNVTG,,T,,M,0.087,N,0.161,K,A*34
$GNGGA,065122.00,3553.25557,N,12836.70181,E,1,11,0.89,58.1,M,22.9,M,,*75
$GNGSA,A,3,06,12,19,02,05,09,,,,,,,1.54,0.89,1.25*18
$GNGSA,A,3,88,81,65,66,67,,,,,,,,1.54,0.89,1.25*10
$GPGSV,4,1,14,02,66,335,23,05,45,269,22,06,56,089,30,07,12,096,*7A
$GPGSV,4,2,14,09,30,048,20,12,11,254,22,13,14,195,18,17,09,160,14*70
$GPGSV,4,3,14,19,29,166,21,20,03,257,,23,05,038,10,25,07,288,14*72
$GPGSV,4,4,14,29,11,322,,30,07,128,*7B
$GLGSV,2,1,06,65,22,036,12,66,73,337,28,67,37,238,20,81,81,340,30*66
$GLGSV,2,2,06,82,27,329,,88,43,145,09*6A
$GNGLL,3553.25557,N,12836.70181,E,065122.00,A,A*74
$GNRMC,065123.00,A,3553.25533,N,12836.70176,E,0.095,,090917,,,A*6C
$GNVTG,,T,,M,0.095,N,0.177,K,A*30
$GNGGA,065123.00,3553.25533,N,12836.70176,E,1,11,0.89,58.6,M,22.9,M,,*79
$GNGSA,A,3,06,12,19,02,05,09,,,,,,,1.54,0.89,1.25*18
$GNGSA,A,3,88,81,65,66,67,,,,,,,,1.54,0.89,1.25*10
$GPGSV,4,1,14,02,66,335,24,05,45,269,22,06,56,089,30,07,12,096,*7D
$GPGSV,4,2,14,09,30,048,20,12,11,254,22,13,14,195,18,17,09,160,09*7C
$GPGSV,4,3,14,19,29,166,21,20,03,257,,23,05,038,10,25,07,288,15*73
$GPGSV,4,4,14,29,11,322,,30,07,128,*7B
$GLGSV,2,1,06,65,22,036,10,66,73,337,28,67,37,238,20,81,81,340,30*64
$GLGSV,2,2,06,82,27,329,,88,43,145,10*62
$GNGLL,3553.25533,N,12836.70176,E,065123.00,A,A*7F
$GNRMC,065124.00,A,3553.25466,N,12836.70158,E,0.465,,090917,,,A*6D
$GNVTG,,T,,M,0.465,N,0.861,K,A*35
$GNGGA,065124.00,3553.25466,N,12836.70158,E,1,11,0.89,59.7,M,22.9,M,,*73
$GNGSA,A,3,06,12,19,02,05,09,,,,,,,1.54,0.89,1.25*18
$GNGSA,A,3,88,81,65,66,67,,,,,,,,1.54,0.89,1.25*10
$GPGSV,4,1,14,02,66,335,24,05,45,269,22,06,56,089,30,07,12,096,*7D
$GPGSV,4,2,14,09,30,048,20,12,11,254,22,13,14,195,17,17,09,160,08*72
$GPGSV,4,3,14,19,29,166,21,20,03,257,,23,05,038,09,25,07,288,14*7A
$GPGSV,4,4,14,29,11,322,,30,07,128,*7B
$GLGSV,2,1,06,65,22,036,10,66,73,337,28,67,37,238,20,81,81,340,30*64
$GLGSV,2,2,06,82,27,329,,88,43,145,10*62
$GNGLL,3553.25466,N,12836.70158,E,065124.00,A,A*75
$GNRMC,065125.00,A,3553.25447,N,12836.70148,E,0.467,,090917,,,A*6C
$GNVTG,,T,,M,0.467,N,0.865,K,A*33
$GNGGA,065125.00,3553.25447,N,12836.70148,E,1,11,0.89,59.9,M,22.9,M,,*7E
$GNGSA,A,3,06,12,19,02,05,09,,,,,,,1.54,0.89,1.25*18
$GNGSA,A,3,88,81,65,66,67,,,,,,,,1.54,0.89,1.25*10
$GPGSV,4,1,14,02,66,335,24,05,45,269,21,06,56,089,30,07,12,096,*7E
$GPGSV,4,2,14,09,30,048,20,12,11,254,22,13,14,195,17,17,09,160,11*7A
$GPGSV,4,3,14,19,29,166,21,20,03,257,,23,05,038,09,25,07,288,14*7A
$GPGSV,4,4,14,29,11,322,,30,07,128,*7B
$GLGSV,2,1,06,65,22,036,10,66,73,337,28,67,37,238,20,81,81,340,30*64
$GLGSV,2,2,06,82,27,329,,88,43,145,08*6B
$GNGLL,3553.25447,N,12836.70148,E,065125.00,A,A*76
$GNRMC,065126.00,A,3553.25420,N,12836.70139,E,0.489,,090917,,,A*68
$GNVTG,,T,,M,0.489,N,0.906,K,A*37
$GNGGA,065126.00,3553.25420,N,12836.70139,E,1,11,0.89,60.4,M,22.9,M,,*7D
$GNGSA,A,3,06,12,19,02,05,09,,,,,,,1.54,0.89,1.25*18
$GNGSA,A,3,88,81,65,66,67,,,,,,,,1.54,0.89,1.25*10
$GPGSV,4,1,14,02,66,335,24,05,45,269,21,06,56,089,30,07,12,096,*7E
$GPGSV,4,2,14,09,30,048,21,12,11,254,22,13,14,195,17,17,09,160,11*7B
$GPGSV,4,3,14,19,29,166,21,20,03,257,,23,05,038,09,25,07,288,14*7A
$GPGSV,4,4,14,29,11,322,,30,07,128,*7B
$GLGSV,2,1,06,65,22,036,10,66,73,337,28,67,37,238,19,81,81,340,30*6E
$GLGSV,2,2,06,82,27,329,,88,43,145,12*60
$GNGLL,3553.25420,N,12836.70139,E,065126.00,A,A*72
$GNRMC,065127.00,A,3553.25422,N,12836.70145,E,0.154,,090917,,,A*65
$GNVTG,,T,,M,0.154,N,0.286,K,A*31
$GNGGA,065127.00,3553.25422,N,12836.70145,E,1,11,0.89,60.8,M,22.9,M,,*79
$GNGSA,A,3,06,12,19,02,05,09,,,,,,,1.54,0.89,1.25*18
$GNGSA,A,3,88,81,65,66,67,,,,,,,,1.54,0.89,1.25*10
$GPGSV,4,1,14,02,66,335,24,05,45,269,22,06,56,089,30,07,12,096,*7D
$GPGSV,4,2,14,09,30,048,21,12,11,254,22,13,14,195,16,17,09,160,13*78
$GPGSV,4,3,14,19,29,166,21,20,03,257,,23,05,038,10,25,07,288,13*75
$GPGSV,4,4,14,29,11,322,,30,07,128,*7B
$GLGSV,2,1,06,65,22,036,09,66,73,337,28,67,37,238,19,81,81,340,30*66
$GLGSV,2,2,06,82,27,329,,88,42,145,08*6A
$GNGLL,3553.25422,N,12836.70145,E,065127.00,A,A*7A
$GNRMC,065128.00,A,3553.25416,N,12836.70143,E,0.155,,090917,,,A*6A
$GNVTG,,T,,M,0.155,N,0.286,K,A*30
$GNGGA,065128.00,3553.25416,N,12836.70143,E,1,11,0.89,61.1,M,22.9,M,,*7F
$GNGSA,A,3,06,12,19,02,05,09,,,,,,,1.54,0.89,1.25*18
$GNGSA,A,3,88,81,65,66,67,,,,,,,,1.54,0.89,1.25*10
$GPGSV,4,1,14,02,66,335,23,05,45,269,22,06,56,089,30,07,12,096,*7A
$GPGSV,4,2,14,09,30,048,21,12,11,254,22,13,14,195,16,17,09,160,10*7B
$GPGSV,4,3,14,19,29,166,22,20,03,257,,23,05,038,09,25,07,288,14*79
$GPGSV,4,4,14,29,11,322,,30,07,128,*7B
$GLGSV,2,1,06,65,22,036,09,66,73,337,28,67,37,238,20,81,81,340,30*6C
$GLGSV,2,2,06,82,27,329,,88,42,145,08*6A
$GNGLL,3553.25416,N,12836.70143,E,065128.00,A,A*74
$GNRMC,065129.00,A,3553.25400,N,12836.70140,E,0.285,,090917,,,A*61
$GNVTG,,T,,M,0.285,N,0.528,K,A*3D
$GNGGA,065129.00,3553.25400,N,12836.70140,E,1,11,0.89,61.5,M,22.9,M,,*7E
$GNGSA,A,3,06,12,19,02,05,09,,,,,,,1.54,0.89,1.25*18
$GNGSA,A,3,88,81,65,66,67,,,,,,,,1.54,0.89,1.25*10
$GPGSV,4,1,14,02,66,335,23,05,45,269,22,06,56,089,30,07,12,096,*7A
$GPGSV,4,2,14,09,30,048,21,12,11,254,22,13,14,195,16,17,09,160,11*7A
$GPGSV,4,3,14,19,29,166,22,20,03,257,,23,05,038,10,25,07,288,14*71
$GPGSV,4,4,14,29,11,322,,30,07,128,*7B
$GLGSV,2,1,06,65,22,036,09,66,73,337,28,67,37,238,20,81,81,340,30*6C
$GLGSV,2,2,06,82,27,329,,88,42,145,13*60
$GNGLL,3553.25400,N,12836.70140,E,065129.00,A,A*71
$GNRMC,065130.00,A,3553.25396,N,12836.70138,E,0.050,,090917,,,A*64
$GNVTG,,T,,M,0.050,N,0.093,K,A*32
$GNGGA,065130.00,3553.25396,N,12836.70138,E,1,11,0.89,62.1,M,22.9,M,,*76
$GNGSA,A,3,06,12,19,02,05,09,,,,,,,1.54,0.89,1.25*18
$GNGSA,A,3,88,81,65,66,67,,,,,,,,1.54,0.89,1.25*10
$GPGSV,4,1,14,02,66,335,23,05,45,269,21,06,56,089,30,07,12,096,*79
$GPGSV,4,2,14,09,30,048,20,12,11,254,22,13,14,195,17,17,09,160,10*7B
$GPGSV,4,3,14,19,29,166,22,20,03,257,,23,05,038,10,25,07,288,14*71
$GPGSV,4,4,14,29,11,322,,30,07,128,*7B
$GLGSV,2,1,06,65,22,036,08,66,73,337,28,67,37,238,19,81,81,340,30*67
$GLGSV,2,2,06,82,27,329,,88,42,145,09*6B
$GNGLL,3553.25396,N,12836.70138,E,065130.00,A,A*7E
$GNRMC,065131.00,A,3553.25376,N,12836.70131,E,0.267,,090917,,,A*64
$GNVTG,,T,,M,0.267,N,0.494,K,A*37
$GNGGA,065131.00,3553.25376,N,12836.70131,E,1,11,0.89,62.5,M,22.9,M,,*74
$GNGSA,A,3,06,12,19,02,05,09,,,,,,,1.54,0.89,1.25*18
$GNGSA,A,3,88,81,65,66,67,,,,,,,,1.54,0.89,1.25*10
$GPGSV,4,1,14,02,66,335,23,05,45,270,21,06,56,089,30,07,12,096,*71
$GPGSV,4,2,14,09,30,048,20,12,11,254,22,13,14,195,16,17,09,160,13*79
$GPGSV,4,3,14,19,29,166,22,20,03,257,,23,05,038,08,25,07,288,14*78
$GPGSV,4,4,14,29,11,322,,30,07,128,*7B
$GLGSV,2,1,06,65,22,036,08,66,73,337,28,67,37,238,19,81,81,340,30*67
$GLGSV,2,2,06,82,27,329,,88,42,145,11*62
$GNGLL,3553.25376,N,12836.70131,E,065131.00,A,A*78
$GNRMC,065132.00,A,3553.25360,N,12836.70134,E,0.356,,090917,,,A*66
$GNVTG,,T,,M,0.356,N,0.659,K,A*37
$GNGGA,065132.00,3553.25360,N,12836.70134,E,1,11,0.89,62.7,M,22.9,M,,*77
$GNGSA,A,3,06,12,19,02,05,09,,,,,,,1.54,0.89,1.25*18
$GNGSA,A,3,88,81,65,66,67,,,,,,,,1.54,0.89,1.25*10
$GPGSV,4,1,14,02,66,335,23,05,45,270,21,06,56,090,30,07,12,096,*79
$GPGSV,4,2,14,09,30,048,20,12,11,254,22,13,14,195,16,17,09,160,12*78
$GPGSV,4,3,14,19,29,166,22,20,03,257,,23,05,038,08,25,07,288,12*7E
$GPGSV,4,4,14,29,11,322,,30,07,128,*7B
$GLGSV,2,1,06,65,22,036,10,66,73,337,28,67,37,238,19,81,81,340,30*6E
$GLGSV,2,2,06,82,27,329,,88,42,145,14*67
$GNGLL,3553.25360,N,12836.70134,E,065132.00,A,A*79
$GNRMC,065133.00,A,3553.25363,N,12836.70140,E,0.319,,090917,,,A*6C
$GNVTG,,T,,M,0.319,N,0.592,K,A*38
$GNGGA,065133.00,3553.25363,N,12836.70140,E,1,11,0.89,62.8,M,22.9,M,,*79
$GNGSA,A,3,06,12,19,02,05,09,,,,,,,1.54,0.89,1.25*18
$GNGSA,A,3,88,81,65,66,67,,,,,,,,1.54,0.89,1.25*10
$GPGSV,4,1,14,02,66,335,23,05,45,270,21,06,56,090,30,07,12,095,*7A
$GPGSV,4,2,14,09,30,048,21,12,11,254,21,13,14,195,16,17,09,160,11*79
$GPGSV,4,3,14,19,29,166,22,20,03,257,,23,05,038,07,25,07,288,12*71
$GPGSV,4,4,14,29,11,322,,30,07,128,*7B
$GLGSV,2,1,06,65,22,036,08,66,73,337,28,67,37,238,19,81,81,340,29*6F
$GLGSV,2,2,06,82,27,329,,88,42,145,10*63
$GNGLL,3553.25363,N,12836.70140,E,065133.00,A,A*78
$GNRMC,065134.00,A,3553.25351,N,12836.70127,E,0.396,,090917,,,A*6C
$GNVTG,,T,,M,0.396,N,0.733,K,A*36
$GNGGA,065134.00,3553.25351,N,12836.70127,E,1,11,0.89,63.0,M,22.9,M,,*77
$GNGSA,A,3,06,12,19,02,05,09,,,,,,,1.54,0.89,1.25*18
$GNGSA,A,3,88,81,65,66,67,,,,,,,,1.54,0.89,1.25*10
$GPGSV,4,1,14,02,66,335,23,05,45,270,20,06,56,090,30,07,12,095,*7B
$GPGSV,4,2,14,09,30,048,21,12,11,254,22,13,14,195,16,17,09,160,13*78
$GPGSV,4,3,14,19,29,166,22,20,03,257,,23,05,038,08,25,07,288,13*7F
$GPGSV,4,4,14,29,11,322,,30,07,128,*7B
$GLGSV,2,1,06,65,22,036,10,66,73,337,28,67,37,238,19,81,81,340,29*66
$GLGSV,2,2,06,82,27,329,,88,42,145,14*67
$GNGLL,3553.25351,N,12836.70127,E,065134.00,A,A*7F
$GNRMC,065135.00,A,3553.25340,N,12836.70129,E,0.450,,090917,,,A*6E
$GNVTG,,T,,M,0.450,N,0.834,K,A*33
$GNGGA,065135.00,3553.25340,N,12836.70129,E,1,11,0.89,63.0,M,22.9,M,,*78
$GNGSA,A,3,06,12,19,02,05,09,,,,,,,1.54,0.89,1.25*18
$GNGSA,A,3,88,81,65,66,67,,,,,,,,1.54,0.89,1.25*10
$GPGSV,4,1,14,02,66,335,23,05,45,270,21,06,56,090,30,07,12,095,*7A
$GPGSV,4,2,14,09,30,048,21,12,11,254,21,13,14,195,15,17,09,160,11*7A
$GPGSV,4,3,14,19,29,166,22,20,03,257,,23,05,038,08,25,07,288,13*7F
$GPGSV,4,4,14,29,11,322,,30,07,128,*7B
$GLGSV,2,1,06,65,22,036,11,66,73,337,28,67,37,238,19,81,81,340,29*67
$GLGSV,2,2,06,82,27,329,,88,42,145,14*67
$GNGLL,3553.25340,N,12836.70129,E,065135.00,A,A*70
$GNRMC,065136.00,A,3553.25366,N,12836.70126,E,0.213,,090917,,,A*67
$GNVTG,,T,,M,0.213,N,0.394,K,A*33
$GNGGA,065136.00,3553.25366,N,12836.70126,E,1,11,0.89,63.1,M,22.9,M,,*71
$GNGSA,A,3,06,12,19,02,05,09,,,,,,,1.54,0.89,1.25*18
$GNGSA,A,3,88,81,65,66,67,,,,,,,,1.54,0.89,1.25*10
$GPGSV,4,1,14,02,66,335,23,05,45,270,21,06,56,090,31,07,12,095,*7B
$GPGSV,4,2,14,09,30,048,21,12,11,254,22,13,14,195,14,17,09,160,09*71
$GPGSV,4,3,14,19,29,166,22,20,03,257,,23,05,038,11,25,07,288,13*77
$GPGSV,4,4,14,29,11,322,,30,07,128,*7B
$GLGSV,2,1,06,65,22,036,09,66,73,337,28,67,37,238,19,81,81,340,29*6E
$GLGSV,2,2,06,82,27,329,,88,42,145,11*62
$GNGLL,3553.25366,N,12836.70126,E,065136.00,A,A*78
$GNRMC,065137.00,A,3553.25366,N,12836.70128,E,0.123,,090917,,,A*68
$GNVTG,,T,,M,0.123,N,0.228,K,A*35
$GNGGA,065137.00,3553.25366,N,12836.70128,E,1,11,0.89,63.3,M,22.9,M,,*7C
$GNGSA,A,3,06,12,19,02,05,09,,,,,,,1.54,0.89,1.25*18
$GNGSA,A,3,88,81,65,66,67,,,,,,,,1.54,0.89,1.25*10
$GPGSV,4,1,14,02,66,335,23,05,45,270,21,06,56,090,30,07,12,095,*7A
$GPGSV,4,2,14,09,30,048,21,12,11,254,22,13,14,195,14,17,09,160,12*7B
$GPGSV,4,3,14,19,29,166,23,20,03,257,,23,05,038,10,25,07,288,13*77
$GPGSV,4,4,14,29,11,322,,30,07,128,*7B
$GLGSV,2,1,06,65,22,036,09,66,73,337,28,67,37,238,19,81,81,340,29*6E
$GLGSV,2,2,06,82,27,329,,88,42,145,10*63
$GNGLL,3553.25366,N,12836.70128,E,065137.00,A,A*77
$GNRMC,065138.00,A,3553.25366,N,12836.70128,E,0.042,,090917,,,A*61
$GNVTG,,T,,M,0.042,N,0.078,K,A*34
$GNGGA,065138.00,3553.25366,N,12836.70128,E,1,11,0.89,63.4,M,22.9,M,,*74
$GNGSA,A,3,06,12,19,02,05,09,,,,,,,1.54,0.89,1.25*18
$GNGSA,A,3,88,81,65,66,67,,,,,,,,1.54,0.89,1.25*10
$GPGSV,4,1,14,02,66,335,24,05,45,270,21,06,56,090,30,07,12,095,*7D
$GPGSV,4,2,14,09,30,048,21,12,11,254,21,13,14,195,13,17,09,160,11*7C
$GPGSV,4,3,14,19,29,166,23,20,03,257,,23,05,038,07,25,07,288,13*71
$GPGSV,4,4,14,29,11,322,,30,07,128,*7B
$GLGSV,2,1,06,65,22,036,11,66,73,337,28,67,37,238,19,81,81,340,29*67
$GLGSV,2,2,06,82,27,329,,88,42,145,10*63
$GNGLL,3553.25366,N,12836.70128,E,065138.00,A,A*78
$GNRMC,065139.00,A,3553.25359,N,12836.70134,E,0.333,,090917,,,A*64
$GNVTG,,T,,M,0.333,N,0.617,K,A*3E
$GNGGA,065139.00,3553.25359,N,12836.70134,E,1,11,0.89,63.4,M,22.9,M,,*74
$GNGSA,A,3,06,12,19,02,05,09,,,,,,,1.54,0.89,1.25*18
$GNGSA,A,3,88,81,65,66,67,,,,,,,,1.54,0.89,1.25*10
$GPGSV,4,1,14,02,66,335,23,05,45,270,21,06,56,090,31,07,12,095,*7B
$GPGSV,4,2,14,09,30,048,21,12,11,254,22,13,14,195,12,17,09,160,11*7E
$GPGSV,4,3,14,19,29,166,22,20,03,257,,23,05,038,10,25,07,288,12*77
$GPGSV,4,4,14,29,11,322,,30,07,128,*7B
$GLGSV,2,1,06,65,22,036,12,66,73,337,28,67,37,238,19,81,81,340,29*64
$GLGSV,2,2,06,82,27,329,,88,42,145,15*66
$GNGLL,3553.25359,N,12836.70134,E,065139.00,A,A*78
$GNRMC,065140.00,A,3553.25362,N,12836.70115,E,0.516,,090917,,,A*60
$GNVTG,,T,,M,0.516,N,0.956,K,A*35
$GNGGA,065140.00,3553.25362,N,12836.70115,E,1,11,0.89,63.0,M,22.9,M,,*75
$GNGSA,A,3,06,12,19,02,05,09,,,,,,,1.54,0.89,1.25*18
$GNGSA,A,3,88,81,65,66,67,,,,,,,,1.54,0.89,1.25*10
$GPGSV,4,1,14,02,66,335,23,05,45,270,21,06,56,090,30,07,12,095,*7A
$GPGSV,4,2,14,09,30,048,21,12,11,254,21,13,14,195,11,17,09,160,12*7D
$GPGSV,4,3,14,19,29,166,22,20,03,257,,23,05,038,10,25,07,288,10*75
$GPGSV,4,4,14,29,11,322,,30,07,128,*7B
$GLGSV,2,1,06,65,22,036,09,66,73,337,28,67,37,238,19,81,81,340,29*6E
$GLGSV,2,2,06,82,27,329,,88,42,145,09*6B
$GNGLL,3553.25362,N,12836.70115,E,065140.00,A,A*7D
$GNRMC,065141.00,A,3553.25378,N,12836.70123,E,0.028,,090917,,,A*67
$GNVTG,,T,,M,0.028,N,0.053,K,A*31
$GNGGA,065141.00,3553.25378,N,12836.70123,E,1,11,0.89,63.2,M,22.9,M,,*78
$GNGSA,A,3,06,12,19,02,05,09,,,,,,,1.54,0.89,1.25*18
$GNGSA,A,3,88,81,65,66,67,,,,,,,,1.54,0.89,1.25*10
$GPGSV,4,1,14,02,66,335,23,05,45,270,20,06,56,090,30,07,12,095,*7B
$GPGSV,4,2,14,09,30,048,21,12,11,254,20,13,14,195,11,17,09,160,12*7C
$GPGSV,4,3,14,19,29,166,22,20,03,257,,23,05,038,08,25,07,288,10*7C
$GPGSV,4,4,14,29,11,322,,30,07,128,*7B
$GLGSV,2,1,06,65,22,036,07,66,73,337,28,67,37,238,19,81,81,340,29*60
$GLGSV,2,2,06,82,27,329,,88,42,145,14*67
$GNGLL,3553.25378,N,12836.70123,E,065141.00,A,A*72
$GNRMC,065142.00,A,3553.25366,N,12836.70112,E,0.295,,090917,,,A*6D
$GNVTG,,T,,M,0.295,N,0.547,K,A*35
$GNGGA,065142.00,3553.25366,N,12836.70112,E,1,11,0.89,63.5,M,22.9,M,,*71
$GNGSA,A,3,06,12,19,02,05,09,,,,,,,1.54,0.89,1.25*18
$GNGSA,A,3,88,81,65,66,67,,,,,,,,1.54,0.89,1.25*10
$GPGSV,4,1,14,02,66,335,23,05,45,270,20,06,56,090,30,07,12,095,*7B
$GPGSV,4,2,14,09,30,048,22,12,11,254,21,13,14,195,12,17,09,160,12*7D
$GPGSV,4,3,14,19,29,166,22,20,03,257,,23,05,038,11,25,07,288,09*7C
$GPGSV,4,4,14,29,11,322,,30,07,128,*7B
$GLGSV,2,1,06,65,22,036,11,66,73,337,28,67,37,238,19,81,81,340,29*67
$GLGSV,2,2,06,82,27,329,,88,42,145,15*66
$GNGLL,3553.25366,N,12836.70112,E,065142.00,A,A*7C